zip_code_prefix;city;state;geom;geog;latitude_avg;longitude_avg
14409;franca;SP;;;-20.509897499999997;-47.3978655
9790;sao bernardo do campo;SP;;;-23.72685273154166;-46.54574582941039
1151;sao paulo;SP;;;-23.527788191788307;-46.66030962184773
8775;mogi das cruzes;SP;;;-23.49693002789165;-46.185351975305366
13056;campinas;SP;;;-22.98722237101393;-47.151072819246686
89254;jaragua do sul;SC;;;-26.46850294670808;-49.109883098307336
4534;sao paulo;SP;;;-23.58454739993657;-46.67456147821567
35182;timoteo;MG;;;-19.57988226206472;-42.64592409589202
81560;curitiba;PR;;;-25.49685252123605;-49.20902332180169
30575;belo horizonte;MG;;;-19.97007559893824;-43.97959527560735
39400;montes claros;MG;;;-16.718833477927223;-43.8691627456287
20231;rio de janeiro;RJ;;;-22.91164122453689;-43.18354724508045
18682;lencois paulista;SP;;;-22.60405058635247;-48.795055606488425
5704;sao paulo;SP;;;-23.62882679156327;-46.71923267485142
95110;caxias do sul;RS;;;-29.184320575640843;-51.23000145931209
13412;piracicaba;SP;;;-22.693073720785986;-47.65447299085341
22750;rio de janeiro;RJ;;;-22.947654111027692;-43.33860615583707
7124;guarulhos;SP;;;-23.42468549125742;-46.53172199125743
5416;sao paulo;SP;;;-23.555014909804324;-46.69227418471917
68485;pacaja;PA;;;-3.6998579999999457;-50.50819699999997
88034;florianopolis;SC;;;-27.57865911904912;-48.50709600207745
74914;aparecida de goiania;GO;;;-16.754277274281105;-49.271002399443695
5713;sao paulo;SP;;;-23.62510448987245;-46.72835260796926
82820;curitiba;PR;;;-25.424755962259752;-49.2010723395753
8225;sao paulo;SP;;;-23.524074769667923;-46.45826882323692
9121;santo andre;SP;;;-23.687193239224257;-46.498261391639694
74310;goiania;GO;;;-16.704177885673925;-49.30012373064592
4571;sao paulo;SP;;;-23.61202394892955;-46.695471966703145
29311;cachoeiro de itapemirim;ES;;;-20.84794302015016;-41.146180998853126
5528;sao paulo;SP;;;-23.593395634841325;-46.757875363396
12235;sao jose dos campos;SP;;;-23.229954502914183;-45.89422359824575
18130;sao roque;SP;;;-23.53626695697963;-47.13489184347044
42800;camacari;BA;;;-12.703900871300451;-38.326472028106345
27525;resende;RJ;;;-22.47805071801601;-44.50608144601535
81750;curitiba;PR;;;-25.51882425644875;-49.2323511633389
13175;sumare;SP;;;-22.811418577663336;-47.24177202124911
7170;guarulhos;SP;;;-23.4319484074384;-46.44869453427779
93415;novo hamburgo;RS;;;-29.696975127696938;-51.12095566913109
65075;sao luis;MA;;;-2.5085430466673557;-44.303019926805405
88104;sao jose;SC;;;-27.62150704604186;-48.638515641286425
7176;guarulhos;SP;;;-23.40949927477061;-46.39656594240867
35960;santa barbara;MG;;;-19.964212954976457;-43.41725182108993
5727;sao paulo;SP;;;-23.625590333054426;-46.73905080544173
7053;guarulhos;SP;;;-23.47459008907121;-46.56096944910216
14026;ribeirao preto;SP;;;-21.216210904524203;-47.81828973980032
30320;belo horizonte;MG;;;-19.95954610294896;-43.93549305303234
38300;ituiutaba;MG;;;-18.98771181521178;-49.471572121790736
18740;taquarituba;SP;;;-23.546936026090403;-49.24424537825799
83085;sao jose dos pinhais;PR;;;-25.549237938657765;-49.15384787705575
5351;sao paulo;SP;;;-23.55810175353457;-46.75729204524208
39406;montes claros;MG;;;-16.75096677091682;-43.844661119075774
14860;barrinha;SP;;;-21.182360068257925;-48.15822670677218
21310;rio de janeiro;RJ;;;-22.881031646375625;-43.33742185657273
23970;parati;RJ;;;-23.226942512091888;-44.72617217705374
79804;dourados;MS;;;-22.22713301868629;-54.81435120522413
5017;sao paulo;SP;;;-23.537309857060443;-46.6787664476888
75388;trindade;GO;;;-16.645965277753795;-49.51516413471679
85808;cascavel;PR;;;-24.95346147936716;-53.51858485131236
60140;fortaleza;CE;;;-3.7416782330731686;-38.49477936129211
72270;brasilia;DF;;;-15.807534439535994;-48.14563393118026
2075;sao paulo;SP;;;-23.502028505135893;-46.60034967291817
96015;pelotas;RS;;;-31.767831461278803;-52.34106915266308
90010;porto alegre;RS;;;-30.03215040714993;-51.2325516998384
22440;rio de janeiro;RJ;;;-22.987106811270102;-43.22749700083673
13323;salto;SP;;;-23.225911871187957;-47.26603912401082
30190;belo horizonte;MG;;;-19.921126734952896;-43.94119674937962
13212;jundiai;SP;;;-23.151712385018914;-46.97128780668247
29307;cachoeiro de itapemirim;ES;;;-20.845442726895108;-41.10530226786084
12280;cacapava;SP;;;-23.098284219545235;-45.70330750943507
60336;fortaleza;CE;;;-3.716146424923537;-38.57604972093022
11310;sao vicente;SP;;;-23.96707671547605;-46.3914737492793
38408;uberlandia;MG;;;-18.925348871775626;-48.24236513543774
37720;botelhos;MG;;;-21.647835407465777;-46.39422365513176
24431;sao goncalo;RJ;;;-22.827206075806263;-43.08632597763122
5890;sao paulo;SP;;;-23.66734335045476;-46.78750322877922
3733;sao paulo;SP;;;-23.50914521065843;-46.53066228518663
83709;araucaria;PR;;;-25.61138949693849;-49.36969938375004
11347;sao vicente;SP;;;-23.990370050601317;-46.47212050990094
26272;nova iguacu;RJ;;;-22.758865547663003;-43.505321229286125
5415;sao paulo;SP;;;-23.563965740492826;-46.68179815445209
59655;areia branca;RN;;;-4.960484566241286;-37.13433881403624
4548;sao paulo;SP;;;-23.59899552233257;-46.68358067332223
28010;campos dos goytacazes;RJ;;;-21.76030683669503;-41.32653140262073
13573;sao carlos;SP;;;-22.064437791015006;-47.89639950819431
2175;sao paulo;SP;;;-23.516718741284578;-46.57445726194335
37500;itajuba;MG;;;-22.421567268526;-45.45439654895746
90670;porto alegre;RS;;;-30.04623721344161;-51.18559141220381
9890;sao bernardo do campo;SP;;;-23.69676708964741;-46.571862503895126
13321;salto;SP;;;-23.190243653067117;-47.291570633360266
44380;cruz das almas;BA;;;-12.655868277332464;-39.10044839031422
27700;vassouras;RJ;;;-22.418541912748985;-43.67993483814997
44033;feira de santana;BA;;;-12.219344161809689;-38.97268164876794
4537;sao paulo;SP;;;-23.594499367187996;-46.67772056203472
71540;brasilia;DF;;;-15.707155214290086;-47.87945685714087
13569;sao carlos;SP;;;-22.01401696225976;-47.87496317485142
5565;sao paulo;SP;;;-23.59644437191985;-46.79121164599798
3636;sao paulo;SP;;;-23.523158336112846;-46.53311089869581
24120;niteroi;RJ;;;-22.88248286955392;-43.0886607547753
65058;sao luis;MA;;;-2.572329289004968;-44.19951421099502
2983;sao paulo;SP;;;-23.45038103635526;-46.71833685039535
4105;sao paulo;SP;;;-23.5744288642738;-46.63225518665242
89260;jaragua do sul;SC;;;-26.50713904579032;-49.13313967470719
62016;sobral;CE;;;-3.6973432569295928;-40.36871414414944
35500;divinopolis;MG;;;-20.146615317146374;-44.892591683425806
8743;mogi das cruzes;SP;;;-23.554576919483395;-46.2109027377433
71928;brasilia;DF;;;-15.848767641268472;-48.03324800952432
4938;sao paulo;SP;;;-23.688754983351576;-46.761048796006655
2209;sao paulo;SP;;;-23.485064826913263;-46.58236126674555
25850;paraiba do sul;RJ;;;-22.15235907980679;-43.2855197300483
53437;paulista;PE;;;-7.930176473795966;-34.826440694351234
4710;sao paulo;SP;;;-23.625255719401;-46.69674106647811
6382;carapicuiba;SP;;;-23.54811119219724;-46.841166759880586
2632;sao paulo;SP;;;-23.46069115903973;-46.64833329433323
95765;bom principio;RS;;;-29.459638556413456;-51.36831448711259
2631;sao paulo;SP;;;-23.458643298084144;-46.648254625310194
36780;astolfo dutra;MG;;;-21.31561828851855;-42.867365350916536
80050;curitiba;PR;;;-25.439106561486454;-49.23689875714125
30664;belo horizonte;MG;;;-20.00937843130018;-44.0342336888741
86990;marialva;PR;;;-23.489938018233765;-51.788818993683066
8490;sao paulo;SP;;;-23.56613158673322;-46.40933117430316
15015;sao jose do rio preto;SP;;;-20.81842802837701;-49.39248776604019
28909;cabo frio;RJ;;;-22.899295443931194;-42.04634624285419
32140;contagem;MG;;;-19.893454436332657;-44.03400171616229
38410;uberlandia;MG;;;-18.952782820705167;-48.22771100805008
86640;cafeara;PR;;;-22.78572718459205;-51.71305504441468
91340;porto alegre;RS;;;-30.028941461278805;-51.18007165696225
14600;sao joaquim da barra;SP;;;-20.581177442701478;-47.858931261277824
85854;foz do iguacu;PR;;;-25.560872999999997;-54.56496375
30421;belo horizonte;MG;;;-19.939688821541896;-43.97533764669048
9862;sao bernardo do campo;SP;;;-23.705450443973447;-46.58385800553772
8686;suzano;SP;;;-23.534755720078792;-46.28786721968291
7243;guarulhos;SP;;;-23.434701180163835;-46.40890359008191
89120;timbo;SC;;;-26.83365489702238;-49.26170944102369
88348;camboriu;SC;;;-26.99799029848867;-48.65605531454657
95340;nova bassano;RS;;;-28.72908960540212;-51.70430074576316
96215;rio grande;RS;;;-32.09689312405125;-52.17768712456428
71665;brasilia;DF;;;-15.833267999999997;-47.8307655
12929;braganca paulista;SP;;;-22.946012455450425;-46.52383551318598
78600;barra do garcas;MT;;;-15.87636437716699;-52.26320605049736
4960;sao paulo;SP;;;-23.726413791563274;-46.787813649316185
6835;embu;SP;;;-23.678719438253747;-46.85362107799065
9784;sao bernardo do campo;SP;;;-23.71887609338662;-46.52464263358638
73020;brasilia;DF;;;-15.656754584921352;-47.808582687413306
88840;urussanga;SC;;;-28.526461585008278;-49.32174954817925
37589;silvianopolis;MG;;;-22.030606560486653;-45.83142509878336
5874;sao paulo;SP;;;-23.69891158312654;-46.78192879600666
39505;gameleiras;MG;;;-15.082991161112488;-43.11832683236032
66050;belem;PA;;;-1.4390974529689196;-48.48846842933828
37701;pocos de caldas;MG;;;-21.79104335195045;-46.56244368105504
32070;contagem;MG;;;-19.88852473277913;-44.08136349469984
11065;santos;SP;;;-23.9678895545329;-46.34412123980033
12970;piracaia;SP;;;-23.05588544094924;-46.35910657270963
22251;rio de janeiro;RJ;;;-22.945175455450418;-43.18674295048741
11035;santos;SP;;;-23.976779752697844;-46.302225428386
78557;sinop;MT;;;-11.877564849866127;-55.50507778149744
11440;guaruja;SP;;;-23.98788982791853;-46.24777699362336
6401;barueri;SP;;;-23.50924262107987;-46.88666937892011
5590;sao paulo;SP;;;-23.57467050043269;-46.73328224562872
95770;feliz;RS;;;-29.458655226411476;-51.30608476190055
4679;sao paulo;SP;;;-23.67501017124474;-46.679538766172286
30330;belo horizonte;MG;;;-19.941373330284467;-43.93759243297362
12270;jambeiro;SP;;;-23.25658323003718;-45.69174320645941
15050;sao jose do rio preto;SP;;;-20.782078847545822;-49.37199920061633
35160;ipatinga;MG;;;-19.50523742384614;-42.57176378313765
17602;tupa;SP;;;-21.93532101918528;-50.49756182976886
4427;sao paulo;SP;;;-23.681528172081464;-46.65219770413756
70750;brasilia;DF;;;-15.754632909678948;-47.89531165702924
89031;blumenau;SC;;;-26.882803470063276;-49.10761309562108
15275;moncoes;SP;;;-20.851907595580045;-50.08938803282958
22290;rio de janeiro;RJ;;;-22.954859287264107;-43.18091709714924
3563;sao paulo;SP;;;-23.549693280599;-46.49264250874256
88330;balneario camboriu;SC;;;-26.999696999999948;-48.63513949999995
20030;rio de janeiro;RJ;;;-22.908639793496512;-43.17401201249347
4723;sao paulo;SP;;;-23.64524193228113;-46.70359922952856
65430;vargem grande;MA;;;-3.5513577098597806;-43.92322865148397
79130;rio brilhante;MS;;;-21.784207571148777;-54.52942519947917
36855;eugenopolis;MG;;;-21.09981002282405;-42.17627449376193
66055;belem;PA;;;-1.4490947274224149;-48.484601999451726
15054;sao jose do rio preto;SP;;;-20.780995319700494;-49.35424790246387
13142;paulinia;SP;;;-22.77928239439665;-47.17683629156326
3951;sao paulo;SP;;;-23.58353292305826;-46.48957476496762
13214;jundiai;SP;;;-23.148804478137823;-46.92948882832884
3127;sao paulo;SP;;;-23.57744523619365;-46.58928864723873
9030;santo andre;SP;;;-23.670374418102146;-46.525675033179645
12240;sao jose dos campos;SP;;;-23.23009940009024;-45.90094499999999
13045;campinas;SP;;;-22.92841942957608;-47.03706900304376
30830;belo horizonte;MG;;;-19.90179566778229;-44.00424794061967
86806;apucarana;PR;;;-23.52961677345554;-51.43667212317244
52070;recife;PE;;;-8.02746534332621;-34.91569324340702
6290;osasco;SP;;;-23.5186892031566;-46.77405856691081
13270;valinhos;SP;;;-22.976619071841363;-47.01071509319301
9040;santo andre;SP;;;-23.730677044241958;-46.47813835714726
69049;manaus;AM;;;-3.0535376647238763;-60.02618247071386
95595;cidreira;RS;;;-30.17105570679884;-50.201594169231335
20561;rio de janeiro;RJ;;;-22.923126168734587;-43.26075217874656
97700;santiago;RS;;;-29.189988823565876;-54.8719981328078
8340;sao paulo;SP;;;-23.618298375246354;-46.45852502641048
97340;sao sepe;RS;;;-30.16723705939483;-53.56730096663081
78580;alta floresta;MT;;;-9.860566767287835;-56.090677116367935
7191;guarulhos;SP;;;-23.4574125322318;-46.5108025671688
54430;jaboatao dos guararapes;PE;;;-8.193270817916602;-34.933218138281305
5451;sao paulo;SP;;;-23.54341626908212;-46.70487563352314
29395;ibatiba;ES;;;-20.23522317591383;-41.51097291118037
13188;hortolandia;SP;;;-22.894244007858305;-47.23358323658409
2376;sao paulo;SP;;;-23.458526276992316;-46.62665931349181
6719;cotia;SP;;;-23.624444263700656;-46.94883555820426
27915;macae;RJ;;;-22.38954004459297;-41.77709194438561
89868;saudades;SC;;;-26.925936814319545;-53.00068897425011
22220;rio de janeiro;RJ;;;-22.93311463835192;-43.17537798542904
68908;macapa;AP;;;0.0490969345087335;-51.05735669770298
18160;salto de pirapora;SP;;;-23.664502918276984;-47.581761427942936
6764;taboao da serra;SP;;;-23.612294462020333;-46.76578686529368
75570;bom jesus;GO;;;-18.22274634229437;-49.73606451572712
95124;caxias do sul;RS;;;-29.0366325;-51.09108074999999
38415;uberlandia;MG;;;-18.90058003632284;-48.34411500838209
18900;santa cruz do rio pardo;SP;;;-22.883610865880744;-49.61785424118465
9950;diadema;SP;;;-23.684721443793656;-46.58409388868383
45320;santa ines;BA;;;-13.295945239037316;-39.82063913962193
23075;rio de janeiro;RJ;;;-22.88236910768082;-43.56762626325808
48700;serrinha;BA;;;-11.65863269984178;-39.002802502871695
18112;votorantim;SP;;;-23.5270462641308;-47.43206506260343
13185;hortolandia;SP;;;-22.904356478404523;-47.1755015158131
27580;itatiaia;RJ;;;-22.498292896770568;-44.60024523254695
25245;duque de caxias;RJ;;;-22.57142450320851;-43.31181786549752
28375;varre-sai;RJ;;;-20.927197304654296;-41.86929257442269
21615;rio de janeiro;RJ;;;-22.867797310029363;-43.405730754227065
95095;caxias do sul;RS;;;-29.19829438602458;-51.20720195133252
20250;rio de janeiro;RJ;;;-22.92048954687608;-43.208592127894754
29101;vila velha;ES;;;-20.33161263550869;-40.27958609200332
13053;campinas;SP;;;-23.042523405216706;-47.13296873550117
23860;mangaratiba;RJ;;;-22.929835186822583;-43.90887910153451
12942;atibaia;SP;;;-23.120273860118864;-46.56362790244673
5450;sao paulo;SP;;;-23.548879351376293;-46.70528501610016
41706;salvador;BA;;;-12.995208;-38.44161675000001
57046;maceio;AL;;;-9.613217239287312;-35.719633652535485
91350;porto alegre;RS;;;-30.01895817707312;-51.16296204564608
22620;rio de janeiro;RJ;;;-23.01333894087947;-43.30183519386577
16204;birigui;SP;;;-21.30207124709913;-50.34447517254305
14401;franca;SP;;;-20.530671079410943;-47.39851931627846
25675;petropolis;RJ;;;-22.490942742182664;-43.19898857430632
24220;niteroi;RJ;;;-22.90581654870452;-43.106988856771984
90240;porto alegre;RS;;;-30.013169904996133;-51.19853892141162
13520;sao pedro;SP;;;-22.5567717701264;-47.91123662245614
84200;jaguariaiva;PR;;;-24.256441627501136;-49.70995118249992
21515;rio de janeiro;RJ;;;-22.83259079789656;-43.35462276164891
7847;franco da rocha;SP;;;-23.312572747259598;-46.72483470496001
3609;sao paulo;SP;;;-23.51525472300768;-46.53878362822437
72220;brasilia;DF;;;-15.838528302842304;-48.110470859171926
41480;salvador;BA;;;-12.92147146220729;-38.3700553140468
12420;pindamonhangaba;SP;;;-22.945064470526344;-45.46371952947366
84500;irati;PR;;;-25.46071165130973;-50.63828989673304
18380;ribeira;SP;;;-24.658715239978044;-49.0088613700761
4455;sao paulo;SP;;;-23.678985771856432;-46.678985470858095
36200;barbacena;MG;;;-21.232267920465752;-43.77002363272546
55700;limoeiro;PE;;;-7.875546293839904;-35.45206000178267
76974;espigao do oeste;RO;;;-11.52167206485777;-61.01306348804001
26155;belford roxo;RJ;;;-22.717835733663176;-43.404118170334094
12215;sao jose dos campos;SP;;;-23.18093790397594;-45.86936250721335
70770;brasilia;DF;;;-15.732234000000002;-47.89837349999999
35171;coronel fabriciano;MG;;;-19.530799658011595;-42.57080612305797
9960;diadema;SP;;;-23.695431233971945;-46.59243093588782
72331;brasilia;DF;;;-15.874030775594518;-48.11435605830503
72225;brasilia;DF;;;-15.800587776316478;-48.12119762231989
11740;itanhaem;SP;;;-24.149651009642906;-46.7480979001278
74825;goiania;GO;;;-16.7174939681896;-49.24672673825662
14709;bebedouro;SP;;;-20.928623885001464;-48.49299639722605
13465;americana;SP;;;-22.74703919816495;-47.34322030252755
41308;salvador;BA;;;-12.93596607780133;-38.49576841564689
36500;uba;MG;;;-21.12574332854103;-42.92260482854105
86700;arapongas;PR;;;-23.41507740422774;-51.42944823345752
13287;vinhedo;SP;;;-23.048035628679557;-46.99742100929329
88304;itajai;SC;;;-26.89938;-48.67972874999998
79823;dourados;MS;;;-22.21703390643334;-54.83238552192974
17033;bauru;SP;;;-22.337614143709917;-49.02889557185494
14850;pradopolis;SP;;;-21.36757068180344;-48.06270442872158
5171;sao paulo;SP;;;-23.47846082653355;-46.74780027254892
78325;aripuana;MT;;;-10.183051185305056;-59.44159302299549
12900;braganca paulista;SP;;;-22.95669060421837;-46.54087248750651
4374;sao paulo;SP;;;-23.65075406105376;-46.65502005773554
45840;guaratinga;BA;;;-16.583875436328864;-39.7855610979958
4190;sao paulo;SP;;;-23.65162088926077;-46.60351488689484
79904;ponta pora;MS;;;-22.52284115993474;-55.711830616350696
16011;aracatuba;SP;;;-21.21094795939615;-50.42699213300364
27265;volta redonda;RJ;;;-22.52985026533555;-44.1241147559005
87025;maringa;PR;;;-23.377396999935016;-51.93100618003307
7197;guarulhos;SP;;;-23.46307610751172;-46.51553610303015
1527;sao paulo;SP;;;-23.563144561198005;-46.62658014155458
4845;sao paulo;SP;;;-23.74699524118531;-46.69558713405275
14802;araraquara;SP;;;-21.760806096824155;-48.17228519205648
35367;matipo;MG;;;-20.28244511155565;-42.33920230324944
24230;niteroi;RJ;;;-22.911270381614717;-43.10515133611283
36205;barbacena;MG;;;-21.216647501342187;-43.75240420003465
91130;porto alegre;RS;;;-30.01125892229781;-51.131081597841714
95500;santo antonio da patrulha;RS;;;-29.8278405;-50.5234755
1230;sao paulo;SP;;;-23.532734734664448;-46.654324449073776
91760;porto alegre;RS;;;-30.140645406601674;-51.22478800124076
27351;barra mansa;RJ;;;-22.52807299793412;-44.20304134266612
60181;fortaleza;CE;;;-3.728184810433396;-38.47678545198797
39100;diamantina;MG;;;-18.2339841777334;-43.59364621093363
71505;brasilia;DF;;;-15.73240143802808;-47.86277439289611
87050;maringa;PR;;;-23.437975269077903;-51.91385959802448
41720;salvador;BA;;;-12.973746698857436;-38.43905887177561
4003;sao paulo;SP;;;-23.572538936724527;-46.64620103274857
27913;macae;RJ;;;-22.380522364834302;-41.77243199036321
5792;sao paulo;SP;;;-23.64005026311385;-46.77842218067981
18120;mairinque;SP;;;-23.532772472991248;-47.16937115902071
31615;belo horizonte;MG;;;-19.803895418806704;-43.962298019158574
85790;capitao leonidas marques;PR;;;-25.47603;-53.61668325
20735;rio de janeiro;RJ;;;-22.89834913791924;-43.28603771175494
37950;sao sebastiao do paraiso;MG;;;-20.916423501961283;-46.993701179798975
22240;rio de janeiro;RJ;;;-22.93125598447676;-43.17881321481337
25645;petropolis;RJ;;;-22.549033360244323;-43.210094724044055
2802;sao paulo;SP;;;-23.488791114931203;-46.69673727457101
4744;sao paulo;SP;;;-23.657560763806348;-46.707845720785976
3704;sao paulo;SP;;;-23.507806499999997;-46.55110950000001
13416;piracicaba;SP;;;-22.715110444918835;-47.645625352213
26115;belford roxo;RJ;;;-22.748620638829685;-43.3925832985371
73035;brasilia;DF;;;-15.639619383972343;-47.804546933208144
74580;goiania;GO;;;-16.645944494113735;-49.29569488008731
97590;rosario do sul;RS;;;-30.243655111246017;-54.92233782337923
23820;itaguai;RJ;;;-22.869565234536577;-43.7919701082573
3579;sao paulo;SP;;;-23.56079380099833;-46.49873888718328
11420;guaruja;SP;;;-24.014614278217262;-46.274569798459225
35774;paraopeba;MG;;;-19.2748128851055;-44.39843543569106
9271;santo andre;SP;;;-23.639620380229736;-46.50604149140166
13041;campinas;SP;;;-22.917053295025724;-47.061757854838746
1321;sao paulo;SP;;;-23.55896103857696;-46.64089188579832
20240;rio de janeiro;RJ;;;-22.917041999999995;-43.18825317816965
31555;belo horizonte;MG;;;-19.84506185844542;-43.98466346448144
85012;guarapuava;PR;;;-25.397213164319837;-51.46133223062508
39885;crisolita;MG;;;-17.277521340163478;-41.0889441139695
27175;pirai;RJ;;;-22.609469999999945;-43.91234449999996
57062;maceio;AL;;;-9.608373953921216;-35.76131246142304
29903;linhares;ES;;;-19.38662465049386;-40.05577521121764
17120;agudos;SP;;;-22.45244284794321;-48.98977139671903
2435;sao paulo;SP;;;-23.4823915320561;-46.64281243352188
4116;sao paulo;SP;;;-23.590958301142567;-46.629899428674456
21010;rio de janeiro;RJ;;;-22.81177724161504;-43.29909368630079
25545;sao joao de meriti;RJ;;;-22.781746615709963;-43.38653594434864
3105;sao paulo;SP;;;-23.55386629447746;-46.62260224132955
21616;rio de janeiro;RJ;;;-22.849190234260405;-43.39661390132156
88370;navegantes;SC;;;-26.88690680838387;-48.66214683641898
13641;pirassununga;SP;;;-21.92307090817436;-47.36244374160741
9686;sao bernardo do campo;SP;;;-23.667205588510274;-46.59270730426241
89694;faxinal dos guedes;SC;;;-26.849580675078037;-52.256987290082144
7251;guarulhos;SP;;;-23.435049027756925;-46.40011952262103
71908;brasilia;DF;;;-15.790681174014695;-47.85453457868314
72300;brasilia;DF;;;;
88805;criciuma;SC;;;-28.70080388355569;-49.40656387717695
29830;nova venecia;ES;;;-18.716793326809164;-40.39796908496742
99010;passo fundo;RS;;;-28.246010663976687;-52.38356841481704
2230;sao paulo;SP;;;-23.48274827338563;-46.56490113044606
38400;uberlandia;MG;;;-18.91595976602804;-48.278974174995646
6386;carapicuiba;SP;;;-23.53274732599706;-46.847029365764215
20780;rio de janeiro;RJ;;;-22.88650136386977;-43.26883386620703
38950;ibia;MG;;;-19.598096999999942;-46.61303299999997
74986;aparecida de goiania;GO;;;-16.814676261037956;-49.23631853303319
1310;sao paulo;SP;;;-23.556926913670807;-46.6615417904381
11045;santos;SP;;;-23.96112504302036;-46.32316061267247
36900;manhuacu;MG;;;-20.265441566422545;-42.044386189900685
13178;sumare;SP;;;-22.800362898695823;-47.21833340077328
68371;altamira;PA;;;-3.2056389790715394;-52.208863809676046
74423;goiania;GO;;;-16.68822438741148;-49.31497955985662
22231;rio de janeiro;RJ;;;-22.93276755785112;-43.17834623036526
88110;sao jose;SC;;;-27.576619500608015;-48.61693708192752
3718;sao paulo;SP;;;-23.49824519318669;-46.52937216616037
28495;aperibe;RJ;;;-21.62189489518194;-42.10129524956613
11320;sao vicente;SP;;;-23.97242519856393;-46.371264531333615
16010;aracatuba;SP;;;-21.21285039439666;-50.44858920843672
78015;cuiaba;MT;;;-15.610560168573553;-56.09593096965
92320;canoas;RS;;;-29.927407825667792;-51.191704757208896
31330;belo horizonte;MG;;;-19.87964344047544;-44.003708868313176
5093;sao paulo;SP;;;-23.51569610012673;-46.71896759639081
30441;belo horizonte;MG;;;-19.935201059120523;-43.9567957307693
11547;cubatao;SP;;;;
87030;maringa;PR;;;-23.41848622413047;-51.92625934548862
3923;sao paulo;SP;;;-23.590043924475463;-46.51003716796691
13232;campo limpo paulista;SP;;;-23.20706431353269;-46.760735214610754
86181;cambe;PR;;;-23.28193402859364;-51.28510693242536
8576;itaquaquecetuba;SP;;;-23.49479676809363;-46.35731299743924
9551;sao caetano do sul;SP;;;-23.6198894454671;-46.554964747302144
12243;sao jose dos campos;SP;;;-23.201781118789317;-45.89567007799064
5894;sao paulo;SP;;;-23.651715093143583;-46.787411725868246
3574;sao paulo;SP;;;-23.5541361268394;-46.51105076686476
39404;montes claros;MG;;;-16.682043505353082;-43.8286815604386
40323;salvador;BA;;;-12.960072125454408;-38.49810826519133
30240;belo horizonte;MG;;;-19.92416706994057;-43.91647950666509
24240;niteroi;RJ;;;-22.896755634456788;-43.09981143435861
7020;guarulhos;SP;;;-23.46957611878932;-46.53809007799066
5596;sao paulo;SP;;;-23.581213700530878;-46.74534960006341
35935;sao goncalo do rio abaixo;MG;;;-19.825384710991383;-43.35890238504866
86600;rolandia;PR;;;-23.31259824896755;-51.36894941889966
37410;tres coracoes;MG;;;-21.69216794221008;-45.25804903964345
96570;cacapava do sul;RS;;;-30.530757607861464;-53.49864844306403
1424;sao paulo;SP;;;-23.56816235942637;-46.66117892867444
1537;sao paulo;SP;;;-23.569022776299825;-46.62199066665712
14050;ribeirao preto;SP;;;-21.17121748495008;-47.81941847157649
24722;sao goncalo;RJ;;;-22.80367432447838;-42.97982888792682
36680;sao joao nepomuceno;MG;;;-21.53684106547488;-43.0121739022556
6722;cotia;SP;;;-23.65030577512848;-46.95766240287004
92035;canoas;RS;;;-29.916624328065343;-51.12650249999999
22451;rio de janeiro;RJ;;;-22.97823619758802;-43.2372780819727
74160;goiania;GO;;;-16.696446874943895;-49.26452440440847
13610;leme;SP;;;-22.188010549332656;-47.38890953944135
13600;araras;SP;;;-22.35906286886278;-47.3807194132873
13201;jundiai;SP;;;-23.192759454717024;-46.87833704570238
55525;cortes;PE;;;-8.475008743669271;-35.544236173217755
35164;ipatinga;MG;;;-19.4609515387212;-42.525487901061766
3183;sao paulo;SP;;;-23.558837165416367;-46.594341639188656
14051;ribeirao preto;SP;;;-21.17251937246812;-47.83483973397196
88351;brusque;SC;;;-27.082320621703506;-48.93028666250217
60055;fortaleza;CE;;;-3.749334515248173;-38.52361938377261
95780;montenegro;RS;;;-29.67034898140752;-51.46146829327502
76630;itaberai;GO;;;-16.01692125674349;-49.79044712431722
12413;pindamonhangaba;SP;;;-22.942719134058045;-45.42119605197068
72620;brasilia;DF;;;-15.908585997034344;-48.08004599851718
14270;santa rosa de viterbo;SP;;;-21.492062747451047;-47.38142757064218
73780;agua fria de goias;GO;;;-14.980008322372788;-47.77846316061065
99150;marau;RS;;;-28.4595254944111;-52.20408391320524
35790;curvelo;MG;;;-18.744756956577486;-44.45041862816433
24060;niteroi;RJ;;;-22.88468203514288;-43.1104961936404
36080;juiz de fora;MG;;;-21.745859857608703;-43.36325941895093
13843;mogi-guacu;SP;;;-22.3970091627978;-46.94545202732525
24350;niteroi;RJ;;;-22.944019808500155;-43.06302670148316
8150;sao paulo;SP;;;-23.525377438801996;-46.40950968151651
2559;sao paulo;SP;;;-23.49381273105776;-46.67432020760002
3755;sao paulo;SP;;;-23.50999545221116;-46.50243381083857
1227;sao paulo;SP;;;-23.537290117980763;-46.65443089812821
6286;osasco;SP;;;-23.507298266732708;-46.77267139333711
4001;sao paulo;SP;;;-23.57230126005544;-46.65200020136758
12503;guaratingueta;SP;;;-22.827161457837764;-45.18862301683485
9895;sao bernardo do campo;SP;;;-23.70734747994644;-46.56687389064575
83209;paranagua;PR;;;-25.547635663426608;-48.52779305562683
16403;lins;SP;;;-21.697048432542783;-49.746439248588445
4401;sao paulo;SP;;;-23.670706610046736;-46.66108764570951
93700;campo bom;RS;;;-29.681001176488756;-51.07531051934418
14170;sertaozinho;SP;;;-21.136014785734883;-47.99968295337294
2846;sao paulo;SP;;;-23.46490177629982;-46.6951675700848
79640;tres lagoas;MS;;;-20.785329000000004;-51.73997399999999
6765;taboao da serra;SP;;;-23.623297507355577;-46.769556898983055
32044;contagem;MG;;;-19.904771416023824;-44.09296753724
9250;santo andre;SP;;;-23.627607296150902;-46.50968423910785
4160;sao paulo;SP;;;-23.62358155176294;-46.61056007369148
17208;jau;SP;;;-22.280791095202737;-48.5521513301464
81250;curitiba;PR;;;-25.48663937607479;-49.33860322009349
88106;sao jose;SC;;;-27.61033695403959;-48.64766592069694
78307;campos de julio;MT;;;-13.721173638735763;-59.26540355947376
28999;saquarema;RJ;;;-22.931015899566177;-42.6104267656544
9530;sao caetano do sul;SP;;;-23.61776447100232;-46.574964586733216
13160;artur nogueira;SP;;;-22.559120480675748;-47.16516839542564
48950;uaua;BA;;;-9.837063518875055;-39.47566457068699
4342;sao paulo;SP;;;-23.63602166887882;-46.65068692951116
6624;jandira;SP;;;-23.54491726524064;-46.909179399440994
30431;belo horizonte;MG;;;-19.946082656673784;-43.96674583291018
4182;sao paulo;SP;;;-23.64206444771412;-46.60116086192853
4862;sao paulo;SP;;;-23.76273601806428;-46.700452175653766
13275;valinhos;SP;;;-22.9865591766809;-46.98871848455929
89705;concordia;SC;;;-27.228495207129352;-52.05339553756219
28625;nova friburgo;RJ;;;-22.28232053421837;-42.53983553421836
18051;sorocaba;SP;;;-23.509523514570944;-47.5156125
20550;rio de janeiro;RJ;;;-22.923980497085807;-43.22589028129148
35430;ponte nova;MG;;;-20.415339248383304;-42.89153741877715
89245;araquari;SC;;;-26.417275647222727;-48.756934054286376
12233;sao jose dos campos;SP;;;-23.23724961587513;-45.88082955926476
36881;muriae;MG;;;-21.134822699694155;-42.36197237093891
2302;sao paulo;SP;;;-23.486320954173525;-46.61518780752882
6455;barueri;SP;;;-23.50247657869377;-46.85563438418507
9061;santo andre;SP;;;-23.651678503750905;-46.55365613794789
88372;navegantes;SC;;;-26.85907968190116;-48.63953562951828
34004;nova lima;MG;;;-19.994602561506863;-43.8883942701527
75400;inhumas;GO;;;-16.33868934903781;-49.51475360384877
28250;italva;RJ;;;-21.424761;-41.68553399999998
2082;sao paulo;SP;;;-23.49467072799935;-46.609653122396
25802;tres rios;RJ;;;-22.11609445602118;-43.20891268018211
26185;belford roxo;RJ;;;-22.70231309099995;-43.33193249799996
97030;santa maria;RS;;;-29.700413412718515;-53.846744201915854
45585;itagiba;BA;;;-14.146548937637707;-39.73399436801655
88054;florianopolis;SC;;;-27.42864592363426;-48.45905918284473
4717;sao paulo;SP;;;-23.627971016648427;-46.71095884609617
38600;paracatu;MG;;;-17.211337793818256;-46.886436092783214
22410;rio de janeiro;RJ;;;-22.98474248211083;-43.19586486663974
82310;curitiba;PR;;;-25.42808793337765;-49.34710030974091
22753;rio de janeiro;RJ;;;-22.97938068457905;-43.3327651254376
89825;xaxim;SC;;;-26.960877587195213;-52.53025152561406
20540;rio de janeiro;RJ;;;-22.92173310574757;-43.25868934445138
85301;laranjeiras do sul;PR;;;-25.40409493828745;-52.41326011568435
4704;sao paulo;SP;;;-23.622478837353597;-46.68981120330083
8080;sao paulo;SP;;;-23.484915471002324;-46.43150265889548
62740;itapiuna;CE;;;-4.559058445297912;-38.91493703518787
8072;sao paulo;SP;;;-23.48618566157444;-46.46171801285908
7143;guarulhos;SP;;;-23.41873121065844;-46.50373953497029
13050;campinas;SP;;;-22.93221846205146;-47.096790459495125
52120;recife;PE;;;-8.018935889280378;-34.88830087156113
14055;ribeirao preto;SP;;;-21.1575781634253;-47.81743621509692
4772;sao paulo;SP;;;-23.685012;-46.71462147835991
13403;piracicaba;SP;;;-22.727374795169958;-47.67061025477531
73808;formosa;GO;;;-15.562419694850668;-47.33345632170458
88058;florianopolis;SC;;;-27.44750424718865;-48.39733340340489
24315;niteroi;RJ;;;-22.892972503771126;-43.054212114815925
13400;piracicaba;SP;;;-22.734190708292505;-47.65736922147847
2365;sao paulo;SP;;;-23.424789368085;-46.58054625193439
3562;sao paulo;SP;;;-23.54478975206393;-46.495489292925285
16202;birigui;SP;;;-21.2816132788006;-50.31011731483012
93900;ivoti;RS;;;-29.61302126020832;-51.176436353703785
41820;salvador;BA;;;-12.98158709241737;-38.45526521634257
48903;juazeiro;BA;;;-9.418293471519076;-40.50314562847067
84025;ponta grossa;PR;;;-25.086792082329477;-50.127791387148
58407;campina grande;PB;;;-7.223608617819773;-35.87588797757268
22280;rio de janeiro;RJ;;;-22.950922714957603;-43.18739520231989
6140;osasco;SP;;;-23.58146817236992;-46.7988778133476
6056;osasco;SP;;;-23.565986162357948;-46.78504212655093
18110;votorantim;SP;;;-23.540699932021333;-47.45842622799934
4561;sao paulo;SP;;;-23.6119461648681;-46.68121078074323
9321;maua;SP;;;-23.64642952510253;-46.433690298084144
56000;salgueiro;PE;;;-8.058475340149235;-39.12500632992536
12246;sao jose dos campos;SP;;;-23.221587583126546;-45.90665169219235
20011;rio de janeiro;RJ;;;-22.90481260283338;-43.17623582445608
12604;lorena;SP;;;-22.732245460730542;-45.10352631917596
3546;sao paulo;SP;;;-23.53359722592187;-46.510112467799686
24750;sao goncalo;RJ;;;-22.82952666093368;-42.988551310768
11432;guaruja;SP;;;-23.9868178398992;-46.2684461778621
26083;nova iguacu;RJ;;;-22.738184857466575;-43.51115408479917
2114;sao paulo;SP;;;-23.522853341941214;-46.59177958367481
60834;fortaleza;CE;;;-3.782549095475787;-38.45840051096428
85910;toledo;PR;;;-24.75300694197659;-53.72502305170717
24360;niteroi;RJ;;;-22.92080861944341;-43.09368761944342
28943;sao pedro da aldeia;RJ;;;-22.85879545945832;-42.05025992573866
81670;curitiba;PR;;;-25.49408574940205;-49.26375758428594
9861;sao bernardo do campo;SP;;;-23.695889045942334;-46.58174395098847
22631;rio de janeiro;RJ;;;-23.0043086872296;-43.32450783783356
22783;rio de janeiro;RJ;;;-22.99280667740874;-43.44828652055829
75265;vianopolis;GO;;;-16.74633718068107;-48.51462382317262
57311;arapiraca;AL;;;-9.741133003083968;-36.65923020485724
45810;porto seguro;BA;;;-16.44446967266491;-39.06166956260506
27251;volta redonda;RJ;;;-22.511182871227355;-44.082603602140885
1536;sao paulo;SP;;;-23.56253963239443;-46.622343972359054
1455;sao paulo;SP;;;-23.580690704974277;-46.68751888037395
81540;curitiba;PR;;;-25.46478827699232;-49.220950232586965
24724;sao goncalo;RJ;;;-22.799295401468115;-42.95561650700336
6114;osasco;SP;;;-23.532421040994027;-46.79702878957672
1224;sao paulo;SP;;;-23.541718547319537;-46.64883066180968
26265;nova iguacu;RJ;;;-22.76349068629001;-43.48523296340309
6454;barueri;SP;;;-23.49317067158778;-46.847466200289865
76875;ariquemes;RO;;;-9.911688882000476;-63.01739304589514
89150;presidente getulio;SC;;;-27.0558026497794;-49.626171791002086
72548;brasilia;DF;;;-16.005321390558183;-47.989673786216485
31872;belo horizonte;MG;;;-19.814615571181317;-43.89422217248548
88052;florianopolis;SC;;;-27.45347922814357;-48.45176086940968
83880;rio negro;PR;;;-26.08644812451248;-49.78075054841446
32260;contagem;MG;;;-19.95991559942468;-44.03863273842622
95050;caxias do sul;RS;;;-29.15937450115852;-51.16824032553391
91370;porto alegre;RS;;;-30.018188622470177;-51.14962402449404
60135;fortaleza;CE;;;-3.748237921172627;-38.50598489938832
20270;rio de janeiro;RJ;;;-22.920104850395337;-43.22138202997862
97110;santa maria;RS;;;-29.696176744247623;-53.72535127945654
21810;rio de janeiro;RJ;;;-22.886342503904107;-43.46205222439118
4649;sao paulo;SP;;;-23.56288570009682;-46.5555074859666
17209;jau;SP;;;-22.27568678711987;-48.542599749927895
51021;recife;PE;;;-8.124466128224375;-34.896920107276785
23059;rio de janeiro;RJ;;;-22.91609268687132;-43.61169520062432
9415;ribeirao pires;SP;;;-23.75156370006625;-46.44223090761778
55565;sao jose da coroa grande;PE;;;-8.892030444846668;-35.148294484147435
29820;agua doce do norte;ES;;;-18.54780323599976;-40.977619180814784
9850;sao bernardo do campo;SP;;;-23.724134173502662;-46.57554561519289
75083;anapolis;GO;;;-16.302689329371574;-48.94349103757147
16700;guararapes;SP;;;-21.26775382757054;-50.65068760289638
25650;petropolis;RJ;;;-22.533968891214723;-43.2023689893726
3122;sao paulo;SP;;;-23.569423909804325;-46.59127977921403
8671;suzano;SP;;;-23.54279622081375;-46.32776628717167
95170;farroupilha;RS;;;-29.891348178542295;-50.27310902841568
9361;maua;SP;;;-23.705183776848084;-46.45744742091284
23076;rio de janeiro;RJ;;;-22.878227912574285;-43.57731414112189
12281;cacapava;SP;;;-23.10054999999994;-45.706009999999935
39900;almenara;MG;;;-16.186824121841298;-40.69161218605689
28893;rio das ostras;RJ;;;-22.49321971715972;-41.91021028549174
94080;gravatai;RS;;;-29.920144913959263;-51.07064924355125
51030;recife;PE;;;-8.1330811150905;-34.904793597619324
46100;brumado;BA;;;-14.21009227483139;-41.68123821749442
5577;sao paulo;SP;;;-23.583555000000004;-46.77799049999999
30380;belo horizonte;MG;;;-19.950113421576656;-43.95583838718328
8235;sao paulo;SP;;;-23.521240524642884;-46.465711907859145
22755;rio de janeiro;RJ;;;-22.953677236001887;-43.334465638593095
28051;campos dos goytacazes;RJ;;;-21.752686105920883;-41.342931617164176
17512;marilia;SP;;;-22.154209249920417;-49.95162687408481
35900;itabira;MG;;;-19.63165621067063;-43.212335433135365
18070;sorocaba;SP;;;-23.47779747737896;-47.48145219317328
23040;rio de janeiro;RJ;;;-22.920193173466444;-43.54930227407812
4617;sao paulo;SP;;;-23.627568018033404;-46.66308094157195
78540;claudia;MT;;;-11.504941675120063;-54.8819308043262
88045;florianopolis;SC;;;-27.60753508826243;-48.537684624329245
21240;rio de janeiro;RJ;;;-22.81037884041201;-43.32241089592587
7072;guarulhos;SP;;;-23.44890331779098;-46.5573364365803
9531;sao caetano do sul;SP;;;-23.618112463788968;-46.57029325145709
30881;belo horizonte;MG;;;-19.89792339494492;-44.01900337330481
22780;rio de janeiro;RJ;;;-22.96308886984238;-43.402024304605
2452;sao paulo;SP;;;-23.499041510964272;-46.644282319320205
35660;para de minas;MG;;;-19.84716972915744;-44.60195651841526
14530;miguelopolis;SP;;;-20.189440990108366;-48.02461316345813
14745;terra roxa;SP;;;-20.790805053014623;-48.3315460132848
13140;paulinia;SP;;;-22.76161176963473;-47.15147246350049
38442;araguari;MG;;;-18.643784093954583;-48.20804381879092
32145;contagem;MG;;;-19.87394833742732;-44.0478362156856
22775;rio de janeiro;RJ;;;-22.972956517889177;-43.39706327699233
12288;cacapava;SP;;;-23.09500364408646;-45.71081593229389
88505;lages;SC;;;-27.810660101304173;-50.34879360421837
72210;brasilia;DF;;;-15.810740000233778;-48.10509857551138
23090;rio de janeiro;RJ;;;-22.88189342714524;-43.56352526019967
6824;embu das artes;SP;;;-23.669657221034846;-46.810737255407446
28997;saquarema;RJ;;;-22.854017712281305;-42.58599145088122
21550;rio de janeiro;RJ;;;-22.85542527560733;-43.36708926340231
13482;limeira;SP;;;-22.57487785152052;-47.416177053147926
92425;canoas;RS;;;-29.8803711689455;-51.155818596111246
3805;sao paulo;SP;;;-23.50476277629982;-46.4783326666571
15010;sao jose do rio preto;SP;;;-20.81357059323897;-49.37830262409778
12081;taubate;SP;;;-23.02898216385322;-45.53251103079421
15775;santa fe do sul;SP;;;-20.212393090480735;-50.941471352999706
7700;caieiras;SP;;;-23.36233213890305;-46.74058494125767
3575;sao paulo;SP;;;-23.5573347732414;-46.50579561587512
23810;itaguai;RJ;;;-22.87358979081365;-43.77293188513139
36800;carangola;MG;;;-20.73445258960086;-42.03154458299644
39648;chapada do norte;MG;;;-17.154020999999947;-42.37208449999997
13063;campinas;SP;;;-22.89809240895431;-47.1053676157896
87900;loanda;PR;;;-22.931426544866625;-53.13375928731349
27470;passa tres;RJ;;;-22.693764497543054;-44.00449724718562
18190;aracoiaba da serra;SP;;;-23.511645;-47.567511
26022;nova iguacu;RJ;;;-22.72251068402032;-43.44230284110904
91751;porto alegre;RS;;;-30.12782206628604;-51.22261917680643
29305;cachoeiro de itapemirim;ES;;;-20.85994140630161;-41.10689951005736
24812;itaborai;RJ;;;-22.74543440809399;-42.87565777480636
36047;juiz de fora;MG;;;-21.71967883596861;-43.35029896280801
13486;limeira;SP;;;-22.568907864569766;-47.37619564683011
29090;vitoria;ES;;;-20.258271017529587;-40.26903411769548
20230;rio de janeiro;RJ;;;-22.908714883432378;-43.193807831813686
3429;sao paulo;SP;;;-23.554906365803014;-46.5324707200935
89280;sao bento do sul;SC;;;-26.25372275723957;-49.37880566812
26013;nova iguacu;RJ;;;-22.73706624932038;-43.44059210509271
13339;indaiatuba;SP;;;-23.09232014212125;-47.19741214338984
96211;rio grande;RS;;;-32.04232063459594;-52.12953397213267
95097;caxias do sul;RS;;;-29.17928910622808;-51.19211762043794
18550;boituva;SP;;;-23.279657630556585;-47.6618565754143
25963;teresopolis;RJ;;;-22.416149820084957;-42.97702251227752
12995;pinhalzinho;SP;;;-22.78314454789037;-46.58949540991712
56312;petrolina;PE;;;-9.388611953921211;-40.55156403857698
3178;sao paulo;SP;;;-23.55424324701369;-46.584472683594
59063;natal;RN;;;-5.818950827370276;-35.21633146433722
80230;curitiba;PR;;;-25.44041155231119;-49.27281542157665
1526;sao paulo;SP;;;-23.56690212960936;-46.6300592031566
8431;sao paulo;SP;;;-23.525436666945577;-46.413071696087485
47800;barreiras;BA;;;-12.147030551377815;-44.99609163741842
13845;mogi-guacu;SP;;;-22.35835224656331;-46.96074827733332
4313;sao paulo;SP;;;-23.6358037821282;-46.63803244364944
88085;florianopolis;SC;;;-27.60731306466045;-48.59058002775691
39480;januaria;MG;;;-15.485938887533464;-44.36666830665413
27170;ipiabas;RJ;;;-22.37878328511841;-43.86617963279234
76105;firminopolis;GO;;;-16.585863482898127;-50.30843734273628
89227;joinville;SC;;;-26.27365337607479;-48.817669368861424
20530;rio de janeiro;RJ;;;-22.946235476802045;-43.25548301751381
6414;barueri;SP;;;-23.495901469908656;-46.87468669635919
13733;mococa;SP;;;-21.461800979445574;-47.00077905378499
30882;belo horizonte;MG;;;-19.885567704137557;-44.00816196779967
4297;sao paulo;SP;;;-23.631396027053583;-46.604518383488205
23058;rio de janeiro;RJ;;;-22.91943783158779;-43.61948314746567
85139;vitoria;PR;;;-25.564634577485663;-51.48586164382362
29057;vitoria;ES;;;-20.3015925;-40.2804855
27600;valenca;RJ;;;-22.23065356965593;-43.70906792813136
89900;sao miguel do oeste;SC;;;-26.7286991677439;-53.51449582910278
26210;nova iguacu;RJ;;;-22.75604232652301;-43.45465536177899
14405;franca;SP;;;-20.506793628480604;-47.40773763671002
3423;sao paulo;SP;;;-23.547994679987315;-46.5406987209302
9614;sao bernardo do campo;SP;;;-23.669500739338982;-46.555865753130526
13840;mogi-guacu;SP;;;-22.359648157307664;-46.93603474635176
2410;sao paulo;SP;;;-23.4757673119626;-46.62523433819032
13346;indaiatuba;SP;;;-23.1144961851232;-47.22977576894223
5021;sao paulo;SP;;;-23.53399869525075;-46.68496714377629
1008;sao paulo;SP;;;-23.54425493154535;-46.634639135589296
12945;atibaia;SP;;;-23.10981252899768;-46.53698483819031
39401;montes claros;MG;;;-16.717108517212292;-43.8071416039463
71907;brasilia;DF;;;-15.832475819308588;-48.01033388194513
84061;ponta grossa;PR;;;-25.096514742579348;-50.20768958538751
13635;pirassununga;SP;;;-21.971012714097714;-47.42669321771252
15700;jales;SP;;;-20.26932873300056;-50.54852495698551
25585;sao joao de meriti;RJ;;;-22.784785872198324;-43.3306646033206
50960;recife;PE;;;-8.036197556740426;-34.97798268368477
2374;sao paulo;SP;;;-23.456465580904837;-46.62058099668178
55570;rio formoso;PE;;;-8.663202080768311;-35.15524416419809
31975;belo horizonte;MG;;;-19.849586867474528;-43.88560434538695
20040;rio de janeiro;RJ;;;-22.906800000000004;-43.176623145421054
2804;sao paulo;SP;;;-23.48381025284207;-46.69528157314321
20775;rio de janeiro;RJ;;;-22.89681893672453;-43.28130819579902
71720;brasilia;DF;;;-15.872868489415088;-47.97118916123212
23906;angra dos reis;RJ;;;-22.998063807295495;-44.30536607069136
29026;vitoria;ES;;;-20.304757300017386;-40.35246211558666
71915;brasilia;DF;;;-15.835761255029029;-48.02832335236938
5108;sao paulo;SP;;;-23.50729011019097;-46.75750702914189
29240;alfredo chaves;ES;;;-20.63564596381401;-40.749096999405
29055;vitoria;ES;;;-20.296512281724183;-40.29620870064644
22461;rio de janeiro;RJ;;;-22.96070967499565;-43.213958465173945
3254;sao paulo;SP;;;-23.605135910352587;-46.52811406549717
45700;itapetinga;BA;;;-15.257043246448555;-40.24755211052718
8081;sao paulo;SP;;;-23.486811988343234;-46.41994412378098
77440;gurupi;TO;;;-11.63980830660249;-49.047886410004274
31170;belo horizonte;MG;;;-19.881438098245752;-43.91679121149515
86188;cambe;PR;;;-23.310471258670454;-51.22612214348781
54315;jaboatao dos guararapes;PE;;;-8.153703027794757;-34.91977470287277
1044;sao paulo;SP;;;-23.54575105023373;-46.64132693574358
48967;nucleo residencial pilar;BA;;;-10.332137888567775;-40.15330692412231
11070;santos;SP;;;-23.961812938897538;-46.34427982528125
41630;salvador;BA;;;-12.83613350882616;-38.47170587279346
38550;coromandel;MG;;;-18.47534184940673;-47.21120486285433
13515;charqueada;SP;;;-22.50146285970488;-47.77297461817962
6283;osasco;SP;;;-23.5168573377747;-46.770197196975495
37975;itau de minas;MG;;;-20.746977035601056;-46.7490234241636
4809;sao paulo;SP;;;-23.71992046378896;-46.693208556754605
98200;ibiruba;RS;;;-28.628697110459715;-53.09667830334719
11250;bertioga;SP;;;-23.82834010075353;-46.1430173832652
71250;brasilia;DF;;;-15.776556242266905;-48.00254208713626
32115;contagem;MG;;;-19.893504399076264;-44.02745838166273
45570;ipiau;BA;;;-14.131133999999996;-39.73698674999999
13485;limeira;SP;;;-22.54610762836861;-47.38361823827112
2443;sao paulo;SP;;;-23.472335179294816;-46.64636526449883
17205;jau;SP;;;-22.29194278045217;-48.56406501056031
35720;matozinhos;MG;;;-19.559992780187734;-44.085205548265264
27213;volta redonda;RJ;;;-22.505694901916865;-44.08863912174069
80620;curitiba;PR;;;-25.45385542382702;-49.286168717179294
64053;teresina;PI;;;-5.070999014568562;-42.75504527381364
5782;sao paulo;SP;;;-23.652801714124177;-46.7682836429379
31748;belo horizonte;MG;;;-19.79768909694483;-43.93419895512006
48180;entre rios;BA;;;-11.93374395050816;-38.09763418045133
6600;jandira;SP;;;-23.532465887291032;-46.90341559813994
2418;sao paulo;SP;;;-23.470718940879472;-46.63127566403139
78320;juina;MT;;;-11.418759603270525;-58.77167173409165
35502;divinopolis;MG;;;-20.147537126559413;-44.90712481034317
91160;porto alegre;RS;;;-29.991483510663272;-51.09895269471816
7600;mairipora;SP;;;-23.323581622627877;-46.571516434161296
21660;rio de janeiro;RJ;;;-22.842986588696125;-43.37442676618174
8381;sao paulo;SP;;;-23.605867425471804;-46.43376271204341
64017;teresina;PI;;;-5.112279513225316;-42.78614156958681
85960;marechal candido rondon;PR;;;-24.549059297396184;-54.05157641917936
18111;votorantim;SP;;;-23.53756427699231;-47.4346005360668
9840;sao bernardo do campo;SP;;;-23.737592378844752;-46.573827062294505
8240;sao paulo;SP;;;-23.521947201039;-46.44086049035999
29046;vitoria;ES;;;-20.288591287264104;-40.30996655037796
7862;franco da rocha;SP;;;-23.32070476186048;-46.70968372491974
30290;belo horizonte;MG;;;-19.91957605329214;-43.87949678296492
6708;cotia;SP;;;-23.58516238605811;-46.8418149476888
18707;avare;SP;;;-23.074464474332117;-48.922589186010086
9627;sao bernardo do campo;SP;;;-23.65609467718869;-46.56810262888819
20020;rio de janeiro;RJ;;;-22.906463489324185;-43.17565536663972
74920;aparecida de goiania;GO;;;-16.73933140071101;-49.22234867173652
15460;icem;SP;;;-20.340523392415125;-49.19599185478212
75064;anapolis;GO;;;-16.3327550678405;-48.92035002041453
11618;sao sebastiao;SP;;;-23.781911088555443;-45.62542446149357
18135;sao roque;SP;;;-23.54575741915263;-47.12353107857869
29160;serra;ES;;;-20.236316793236703;-40.27327897238731
15130;mirassol;SP;;;-20.806068345905757;-49.50314249273567
62106;taperuaba;CE;;;-4.078609136027391;-39.94592222999709
18013;sorocaba;SP;;;-23.49327839993657;-47.4093955217843
2616;sao paulo;SP;;;-23.466439467107183;-46.655328676669086
6381;carapicuiba;SP;;;-23.54833767344497;-46.84135989135912
37137;alfenas;MG;;;-21.407289471627635;-45.94035829050192
9280;santo andre;SP;;;-23.63501354177962;-46.50399501887012
36700;leopoldina;MG;;;-21.526803364146524;-42.64106019317997
71571;brasilia;DF;;;-15.774452999999994;-47.77663949999999
13871;sao joao da boa vista;SP;;;-21.98736396522239;-46.79543086278632
8451;sao paulo;SP;;;-23.542061405505155;-46.39838470191586
4171;sao paulo;SP;;;-23.632235999999992;-46.61515349999999
36504;uba;MG;;;-21.113772012461688;-42.92918155418069
59152;parnamirim;RN;;;-5.877772274940695;-35.21715973245594
45986;teixeira de freitas;BA;;;-17.52425531209008;-39.7686386514307
12940;atibaia;SP;;;-23.112774381969185;-46.5488845105504
91550;porto alegre;RS;;;-30.077021487809752;-51.1313949910142
5352;sao paulo;SP;;;-23.55460557353736;-46.75819126121707
58011;joao pessoa;PB;;;-7.12702238412487;-34.89131602039933
36110;chacara;MG;;;-21.672382283549545;-43.2178530054279
29290;rio novo do sul;ES;;;-20.86445270363737;-40.93655435181763
20031;rio de janeiro;RJ;;;-22.91064096725142;-43.17650983181368
30170;belo horizonte;MG;;;-19.92449229586244;-43.947039608806
30690;belo horizonte;MG;;;-19.979845234819173;-44.05782186225846
64020;teresina;PI;;;-5.135516438099332;-42.80542195392369
3959;sao paulo;SP;;;-23.59262562879875;-46.486169266076935
26125;belford roxo;RJ;;;-22.728757813992896;-43.40293031275059
99200;guapore;RS;;;-28.845137218176877;-51.899509317182144
69918;rio branco;AC;;;-9.926145000000002;-67.83511725
38413;uberlandia;MG;;;-18.93162565851085;-48.3023197700476
8536;ferraz de vasconcelos;SP;;;-23.543921177931463;-46.38437270551714
91781;porto alegre;RS;;;-30.184998641145253;-51.17471677600879
65067;sao luis;MA;;;-2.4863595238302167;-44.2333616871893
6786;taboao da serra;SP;;;-23.62213118007229;-46.80837838505422
81270;curitiba;PR;;;-25.45134031779098;-49.34622476894222
87043;maringa;PR;;;-23.40545272144952;-51.89969510559497
88430;petrolandia;SC;;;-27.46723708472355;-49.6569309939645
7080;guarulhos;SP;;;-23.444232506520866;-46.54848453344108
24358;niteroi;RJ;;;-22.95950249166516;-43.054551923240766
22460;rio de janeiro;RJ;;;-22.96587724811021;-43.21897584321064
74973;aparecida de goiania;GO;;;-16.824431439343883;-49.25659197450148
74435;goiania;GO;;;-16.66317182695635;-49.3078833373604
13208;jundiai;SP;;;-23.190172576172973;-46.891633311270105
6270;osasco;SP;;;-23.49708886034903;-46.771496572731024
87260;araruna;PR;;;-23.933221887810674;-52.496383028776826
55644;gravata;PE;;;-8.208423317991008;-35.56779396710883
20720;rio de janeiro;RJ;;;-22.907125456287147;-43.29187014002536
29500;alegre;ES;;;-20.75885563513341;-41.53546035543065
86055;londrina;PR;;;-23.323840543849784;-51.19324769917922
5798;sao paulo;SP;;;-23.65935571412088;-46.76962645115125
48970;senhor do bonfim;BA;;;-10.466645277324735;-40.1859028071156
9750;sao bernardo do campo;SP;;;-23.688917125468198;-46.552552123595405
6540;santana de parnaiba;SP;;;-23.45999953873564;-46.879733658501294
17490;piratininga;SP;;;-22.41435007250668;-49.150791131370646
31741;belo horizonte;MG;;;-19.8474651033948;-43.94897700565801
90440;porto alegre;RS;;;-30.018945290034058;-51.19805308050081
57071;maceio;AL;;;-9.578675746755232;-35.81064137337762
25025;duque de caxias;RJ;;;-22.78530991174892;-43.32222918835144
88056;florianopolis;SC;;;-27.42517433269942;-48.426350651572776
4545;sao paulo;SP;;;-23.595156305009034;-46.67617027782903
17207;jau;SP;;;-22.283151860593247;-48.55975378705841
1131;sao paulo;SP;;;-23.52164183207347;-46.64747554830047
38500;monte carmelo;MG;;;-18.723031653585743;-47.48924270150391
5124;sao paulo;SP;;;-23.50398193450282;-46.73753473994456
74936;aparecida de goiania;GO;;;-16.764070999999944;-49.29423866599996
12946;atibaia;SP;;;-23.1505830119393;-46.54642294477694
84450;ipiranga;PR;;;-25.026860302981927;-50.58690778966883
31310;belo horizonte;MG;;;-19.875867454065443;-43.98278199806675
12030;taubate;SP;;;-23.036951634709904;-45.56997640165054
4295;sao paulo;SP;;;-23.620747830140235;-46.60523626519132
31015;belo horizonte;MG;;;-19.9094872739339;-43.9275164141035
23515;rio de janeiro;RJ;;;-22.927194377459763;-43.68254521510183
12334;jacarei;SP;;;-23.29657118186936;-46.01277577875843
64605;picos;PI;;;;
45690;una;BA;;;-15.290548324370024;-39.07853313993216
41940;salvador;BA;;;-13.01436801389564;-38.48652807924521
18890;taguai;SP;;;-23.4552226212674;-49.40848379256824
14015;ribeirao preto;SP;;;-21.180024408823375;-47.81386413405276
30350;belo horizonte;MG;;;-19.944623503750908;-43.945072637803655
7031;guarulhos;SP;;;-23.496488565250488;-46.54671310832206
5679;sao paulo;SP;;;-23.604323951151244;-46.70316316861901
87250;peabiru;PR;;;-23.951445083704208;-52.34935307900668
5092;sao paulo;SP;;;-23.511502314851025;-46.71448715742552
4117;sao paulo;SP;;;-23.58902002192854;-46.62638589800334
17514;marilia;SP;;;-22.188742247875226;-49.93422578806241
38195;conquista;MG;;;-19.85706533423348;-47.58197138447653
36600;bicas;MG;;;-21.72653029708691;-43.06783127476915
62115;forquilha;CE;;;-3.79933456483994;-40.264101083714486
27910;macae;RJ;;;-22.37333917216797;-41.78264909681508
70390;brasilia;DF;;;-15.803374410496817;-47.90297513543773
92020;canoas;RS;;;-29.91005335319802;-51.169226719006566
16430;guaicara;SP;;;-21.619351760298564;-49.79754957760015
13060;campinas;SP;;;-22.943830511384977;-47.11233196480047
38320;santa vitoria;MG;;;-18.8498640645774;-50.12086635087845
3165;sao paulo;SP;;;-23.56190256174625;-46.58015179808413
17800;adamantina;SP;;;-21.68804676595129;-51.08242332977711
7807;franco da rocha;SP;;;-23.317321140748085;-46.73209089597715
41230;salvador;BA;;;-12.921581159769474;-38.464732715141416
5303;sao paulo;SP;;;-23.526508568411355;-46.731702782676464
21740;rio de janeiro;RJ;;;-22.8864640049889;-43.37710932987132
3317;sao paulo;SP;;;-23.540931051907165;-46.55301866833054
18143;sao roque;SP;;;-23.553372168359147;-47.087685232139656
7813;franco da rocha;SP;;;-23.30687031531724;-46.762745102764434
69020;manaus;AM;;;-3.0837886239252;-60.051231
13506;rio claro;SP;;;-22.41279106394308;-47.55498970959049
29104;vila velha;ES;;;-20.38385571872436;-40.322682629277
28455;sao jose de uba;RJ;;;-21.358247015394284;-41.94145740541015
14030;ribeirao preto;SP;;;-21.18626056036128;-47.84034554440533
8830;mogi das cruzes;SP;;;-23.516579606826944;-46.13731417572359
3547;sao paulo;SP;;;-23.536683974464783;-46.51084605161872
13604;araras;SP;;;-22.33251088443001;-47.377264861568456
74555;goiania;GO;;;-16.663620161654972;-49.27664523081626
78890;sorriso;MT;;;-12.541158611169966;-55.74314547712085
4183;sao paulo;SP;;;-23.641768213901397;-46.59622988491383
21715;rio de janeiro;RJ;;;-22.878151522072766;-43.444642919095145
89220;joinville;SC;;;-26.27254649125743;-48.87520336219632
2762;sao paulo;SP;;;-23.48331712978441;-46.678195526423366
88501;lages;SC;;;-27.81568867055225;-50.33589889924407
49015;aracaju;SE;;;-10.923370500160772;-37.04516915038051
26052;nova iguacu;RJ;;;-22.67925755545412;-43.446769067369175
9619;sao bernardo do campo;SP;;;-23.66594814120814;-46.56326420731818
2832;sao paulo;SP;;;-23.48349335581969;-46.69258281556927
12412;pindamonhangaba;SP;;;-22.95773146505728;-45.45515668718501
91510;porto alegre;RS;;;-30.07200823826747;-51.17719962332037
13274;valinhos;SP;;;-22.96262568971205;-46.97869548506475
12440;pindamonhangaba;SP;;;-22.913875797003225;-45.364197560394366
60831;fortaleza;CE;;;-3.824190216030415;-38.46347492732565
36400;conselheiro lafaiete;MG;;;-20.653541574550808;-43.79083732604181
23095;rio de janeiro;RJ;;;-22.876208978908178;-43.56012203941369
26015;nova iguacu;RJ;;;-22.748203295194685;-43.44562537718087
1152;sao paulo;SP;;;-23.52916893282939;-46.65214846073055
22793;rio de janeiro;RJ;;;-23.00927096142304;-43.42940927644404
30260;belo horizonte;MG;;;-19.92439678489817;-43.91167581141436
35162;ipatinga;MG;;;-19.4780955431646;-42.55679483097696
9820;sao bernardo do campo;SP;;;-23.74605952510253;-46.55042958090485
85035;guarapuava;PR;;;-25.38584962199197;-51.47413276060368
1107;sao paulo;SP;;;-23.522004902014046;-46.63397365860703
13070;campinas;SP;;;-22.895876357204664;-47.0791850342778
77320;taguatinga;TO;;;-12.397255984273702;-46.43739149940548
62320;tiangua;CE;;;-3.727806076424285;-40.99009581978103
23052;rio de janeiro;RJ;;;-22.904996178866543;-43.54317001176807
79500;paranaiba;MS;;;-19.664797258045176;-51.19225174760413
74595;goiania;GO;;;-16.628877320060184;-49.28524147692361
18040;sorocaba;SP;;;-23.50436812822437;-47.46615628434992
31110;belo horizonte;MG;;;-19.89912054094289;-43.9404121305903
99980;david canabarro;RS;;;-28.38921783052984;-51.84601199170674
18460;itarare;SP;;;-24.11419116558057;-49.33254226756805
9330;maua;SP;;;-23.66203473621403;-46.43295618463559
80060;curitiba;PR;;;-25.432110597005;-49.25976793963871
7135;guarulhos;SP;;;-23.422313378296494;-46.520062240348594
57084;maceio;AL;;;-9.539416635293502;-35.717105253390336
57770;cajueiro;AL;;;-9.398206889409591;-36.147432614695205
12321;jacarei;SP;;;-23.302552064590703;-45.9794900391086
88060;florianopolis;SC;;;-27.482571511541188;-48.40972136081135
31260;belo horizonte;MG;;;-19.867166072180638;-43.93513434043602
38411;uberlandia;MG;;;-18.939794605603343;-48.28780246390452
9111;santo andre;SP;;;-23.66721675288362;-46.49913206319721
12721;cruzeiro;SP;;;-22.558413620002973;-44.942923697146966
60822;fortaleza;CE;;;-3.809200987832817;-38.48089572885305
22070;rio de janeiro;RJ;;;-22.984241961423034;-43.19056825090884
96810;santa cruz do sul;RS;;;-29.720993053788824;-52.4277166004204
3420;sao paulo;SP;;;-23.544515233192364;-46.54270610151011
30644;belo horizonte;MG;;;-19.992687872612336;-44.01955292353855
90450;porto alegre;RS;;;-30.02772762392521;-51.1870826147786
19470;presidente epitacio;SP;;;-21.77289607496572;-52.10945787915076
90620;porto alegre;RS;;;-30.04841850983909;-51.20840841355522
30610;belo horizonte;MG;;;-19.97308321204341;-43.993915281435726
89228;joinville;SC;;;-26.287890550358416;-48.778370341304736
29124;vila velha;ES;;;-20.44001405315693;-40.3394852092368
9431;ribeirao pires;SP;;;-23.692278245067488;-46.38667943429559
68745;castanhal;PA;;;-1.3019669634735789;-47.91464067152295
66085;belem;PA;;;-1.436736864850719;-48.47258827728078
12286;cacapava;SP;;;-23.110653666945577;-45.71729604454958
34000;nova lima;MG;;;-19.991665295170066;-43.92964786837783
3319;sao paulo;SP;;;-23.543870857060437;-46.55735807729814
29155;cariacica;ES;;;-20.28949412931753;-40.40596474735495
32143;contagem;MG;;;-19.901759733521697;-44.10606278846021
4040;sao paulo;SP;;;-23.59936558006812;-46.64609756924807
12955;bom jesus dos perdoes;SP;;;-23.115438;-46.48591350000001
69180;urucurituba;AM;;;-3.1290281963597573;-58.155941512619634
53130;olinda;PE;;;-7.980961116856071;-34.837304217323535
9920;diadema;SP;;;-23.68008452677597;-46.62410537301638
13720;sao jose do rio pardo;SP;;;-21.592175195884263;-46.89389599036144
25949;guapimirim;RJ;;;-22.51127625103869;-42.96597520918777
4652;sao paulo;SP;;;-23.6610228506838;-46.66426972730685
13280;vinhedo;SP;;;-23.035339717467757;-46.97157885039535
13326;salto;SP;;;-23.19571962447347;-47.30481555259966
23585;rio de janeiro;RJ;;;-22.92801128978522;-43.64204907457884
13032;campinas;SP;;;-22.910307139332875;-47.08435468122806
20920;rio de janeiro;RJ;;;-22.89141262003006;-43.22976145989381
89700;concordia;SC;;;-27.22653060850951;-52.02147812014162
8285;sao paulo;SP;;;-23.55296249070916;-46.472750648767935
9240;santo andre;SP;;;-23.62936402042012;-46.52450728432847
6730;vargem grande paulista;SP;;;-23.659233203083232;-46.99692810611056
41502;salvador;BA;;;-12.898936693464096;-38.3597569814915
85055;guarapuava;PR;;;-25.37415727226045;-51.465691194010006
73330;brasilia;DF;;;-15.617702740796958;-47.65949696280836
88502;lages;SC;;;-27.80830141993188;-50.31892758549245
89810;chapeco;SC;;;-27.073482284076302;-52.6389422956779
17017;bauru;SP;;;-22.353379879537247;-49.05238433917126
8461;sao paulo;SP;;;-23.55586773105776;-46.40379079961334
2440;sao paulo;SP;;;-23.475865892867446;-46.64976772522937
6535;santana de parnaiba;SP;;;-23.42685192423104;-46.85164034471118
89560;videira;SC;;;-27.00086872288371;-51.14532022116548
20910;rio de janeiro;RJ;;;-22.899782764383268;-43.22853469954991
66640;belem;PA;;;-1.3809726642885602;-48.45196201576657
6768;taboao da serra;SP;;;-23.607693000000005;-46.75265774999998
2541;sao paulo;SP;;;-23.485884401610026;-46.65477723619366
57530;canapi;AL;;;-9.113100722823068;-37.61158401052933
6717;cotia;SP;;;-23.6051651312828;-46.92504614654623
8021;sao paulo;SP;;;-23.502803731057767;-46.43356278420567
83255;pontal do parana;PR;;;-25.621204126016725;-48.42208269355905
28053;campos dos goytacazes;RJ;;;-21.746686962011808;-41.353827401724025
9291;santo andre;SP;;;-23.645729347481154;-46.518892643487824
1301;sao paulo;SP;;;-23.550812799901816;-46.65525802969017
95705;bento goncalves;RS;;;-29.159003201842477;-51.49977005197258
2229;sao paulo;SP;;;-23.47929118373822;-46.56787618526742
5868;sao paulo;SP;;;-23.660562499307517;-46.7754027171793
23092;rio de janeiro;RJ;;;-22.869434839575295;-43.55443024078128
78200;caceres;MT;;;-16.085822367663457;-57.696735618862974
1105;sao paulo;SP;;;-23.533744232586976;-46.63063486274458
60420;fortaleza;CE;;;-3.764602875382307;-38.551905696779954
84640;bituruna;PR;;;-26.15574248986108;-51.56711222294422
5005;sao paulo;SP;;;-23.532997033585296;-46.669557247850406
65054;sao luis;MA;;;-2.5545282652192807;-44.21309341470791
20755;rio de janeiro;RJ;;;-22.886847115730887;-43.29711736635127
12490;sao bento do sapucai;SP;;;-22.690669999999955;-45.735499999999945
25922;mage;RJ;;;-22.66646668441372;-43.12945236438105
13085;campinas;SP;;;-22.792785003606685;-47.08550995989381
9220;santo andre;SP;;;-23.624784000000005;-46.53954225000001
88850;forquilhinha;SC;;;-28.748325046839994;-49.483182534145975
46880;itaberaba;BA;;;-12.521098299259362;-40.30992529346268
3164;sao paulo;SP;;;-23.54644456287144;-46.60552943574358
74885;goiania;GO;;;-16.735303440722898;-49.20675061407453
91740;porto alegre;RS;;;-30.103303723122416;-51.215815419555454
62030;sobral;CE;;;-3.668229235718116;-40.37281407181986
95670;gramado;RS;;;-29.37923247792722;-50.88445107799066
29560;guacui;ES;;;-20.7749205;-41.67766799999998
5442;sao paulo;SP;;;-23.54191093089615;-46.697697408823366
4547;sao paulo;SP;;;-23.593508999999997;-46.69160489873891
85506;pato branco;PR;;;-26.24206599567016;-52.67532762924004
74484;goiania;GO;;;-16.700258999999946;-49.352340499999954
45970;itanhem;BA;;;-17.167313907077183;-40.33230932986439
77022;palmas;TO;;;-10.227705125208283;-48.32585981465984
4833;sao paulo;SP;;;-23.744100100187264;-46.70674982003745
96400;bage;RS;;;-31.32151917200534;-54.10078389798132
30810;belo horizonte;MG;;;-19.902939296150898;-43.988673262709824
27937;macae;RJ;;;-22.39913877640838;-41.79264119818028
30411;belo horizonte;MG;;;-19.92159682447856;-43.95817411951201
9845;sao bernardo do campo;SP;;;-23.745017999999945;-46.572645499999965
5033;sao paulo;SP;;;-23.52327986288882;-46.686732228836064
7998;francisco morato;SP;;;-23.2894526643158;-46.73524341412425
6420;barueri;SP;;;-23.507324736473898;-46.88916151453831
72304;brasilia;DF;;;-15.866991460932812;-48.06216204981815
31010;belo horizonte;MG;;;-19.917625059698125;-43.91323566831868
59084;natal;RN;;;-5.868729586184966;-35.19870162808015
13150;cosmopolis;SP;;;-22.630409321010436;-47.20184824565054
4514;sao paulo;SP;;;-23.601581643083783;-46.67165999027648
4844;sao paulo;SP;;;-23.74981810254469;-46.69876375197105
4563;sao paulo;SP;;;-23.607743741329536;-46.68867314348783
28640;carmo;RJ;;;-21.931793494070657;-42.60935545143997
97015;santa maria;RS;;;-29.689198816146927;-53.8064289212743
4024;sao paulo;SP;;;-23.603000395781635;-46.64456275965141
4742;sao paulo;SP;;;-23.650419321945925;-46.69840379822837
28950;armacao dos buzios;RJ;;;-22.765556142540756;-41.89927673881432
13044;campinas;SP;;;-22.95282064788205;-47.02865383550558
12051;taubate;SP;;;-23.0160027253675;-45.582021391676
2517;sao paulo;SP;;;-23.506064518177627;-46.666119310577606
3124;sao paulo;SP;;;-23.56786401832186;-46.59242413059029
47640;santa maria da vitoria;BA;;;-13.38994230959882;-44.19380658365402
30130;belo horizonte;MG;;;-19.938406212043407;-43.93702206884405
6404;barueri;SP;;;-23.50682727840872;-46.87255898428397
33600;pedro leopoldo;MG;;;-19.652292291953287;-44.056767929538886
39205;tres marias;MG;;;-18.20706591428001;-45.21946726191109
5417;sao paulo;SP;;;-23.56536319233657;-46.68764024978366
82540;curitiba;PR;;;-25.38321753667202;-49.24633927996784
62850;cascavel;CE;;;-4.123006726243445;-38.24515186603778
28470;santo antonio de padua;RJ;;;-21.53063424894017;-42.19299779303212
11075;santos;SP;;;-23.944502325841068;-46.33124278031053
18540;porto feliz;SP;;;-23.213642809967485;-47.52204509959029
89110;gaspar;SC;;;-26.92832230624144;-48.95428876197569
4052;sao paulo;SP;;;-23.610706900080807;-46.63994543519532
36015;juiz de fora;MG;;;-21.75964925062038;-43.353198256592975
17511;marilia;SP;;;-22.181007751312865;-49.963543554532905
88132;palhoca;SC;;;-27.64301988374891;-48.6725565749633
3153;sao paulo;SP;;;-23.597540896712868;-46.57904377939821
6311;carapicuiba;SP;;;-23.5215728152839;-46.8470896586926
25956;teresopolis;RJ;;;-22.430047012910247;-42.96533733393267
8051;sao paulo;SP;;;-23.51489022861713;-46.47171934292568
14165;sertaozinho;SP;;;-21.11122796736243;-47.98897470494354
37561;pouso alegre;MG;;;-22.29155669701961;-45.91207364476194
61890;guaiuba;CE;;;-4.041626306431128;-38.637472387409765
89580;fraiburgo;SC;;;-27.029491198616498;-50.91302665918517
29166;serra;ES;;;-20.19917293680029;-40.229474685674674
1154;sao paulo;SP;;;-23.53158118373822;-46.66174681473255
11030;santos;SP;;;-23.981964066882146;-46.31003955926474
70875;brasilia;DF;;;-15.738024173754896;-47.88918426449883
83203;paranagua;PR;;;-25.5093731854412;-48.51834821967465
8142;sao paulo;SP;;;-23.524553514570957;-46.389812155144575
8720;mogi das cruzes;SP;;;-23.544247080541076;-46.177063403141375
1031;sao paulo;SP;;;-23.536864121011018;-46.63349313820771
13402;piracicaba;SP;;;-22.74889090313922;-47.67870263641869
99835;aurea;RS;;;-27.69722350739536;-52.055877900089214
90035;porto alegre;RS;;;-30.02933889702238;-51.21207766403137
8685;suzano;SP;;;-23.518986378516367;-46.30593493772759
18603;botucatu;SP;;;-22.88432509788077;-48.45934051463188
79333;corumba;MS;;;-19.000792616120705;-57.66799470012542
2808;sao paulo;SP;;;-23.467425066333888;-46.70391530322004
7787;cajamar;SP;;;-23.33533144333977;-46.82864717398648
30335;belo horizonte;MG;;;-19.947131521899543;-43.920072533294665
35901;itabira;MG;;;-19.660085734123605;-43.232502918518094
1533;sao paulo;SP;;;-23.57219854010617;-46.63913109824576
7840;franco da rocha;SP;;;-23.31636794199424;-46.73219626484425
65066;sao luis;MA;;;-2.5070346576439486;-44.21214992867017
26383;queimados;RJ;;;-22.70428020978459;-43.57128748459774
87190;sao jorge do ivai;PR;;;-23.43603704981107;-52.28841988201226
22733;rio de janeiro;RJ;;;-22.90805540699587;-43.365076570333606
7793;cajamar;SP;;;-23.412406339751573;-46.837639395854666
4729;sao paulo;SP;;;-23.637621164031383;-46.71906179516995
8675;suzano;SP;;;-23.541501788825254;-46.30822670460166
8573;itaquaquecetuba;SP;;;-23.495851409134296;-46.35654557859026
8694;suzano;SP;;;-23.514412877515863;-46.29686985093653
85350;nova laranjeiras;PR;;;-25.30872458394816;-52.54606026185847
56330;petrolina;PE;;;-9.377889517889177;-40.49594016180967
25670;petropolis;RJ;;;-22.485110293266917;-43.211151049082765
3184;sao paulo;SP;;;-23.56336681626177;-46.58636668526744
5402;sao paulo;SP;;;-23.5708425;-46.69058249999999
3989;sao paulo;SP;;;-23.61284443493552;-46.47967172745109
37800;guaxupe;MG;;;-21.309842064487707;-46.7248749153552
17700;osvaldo cruz;SP;;;-21.78761366528708;-50.87213184519997
1211;sao paulo;SP;;;-23.53582223582903;-46.651605049299015
15070;sao jose do rio preto;SP;;;-20.8170171874536;-49.36425413438004
25620;petropolis;RJ;;;-22.511952463273957;-43.1777121666574
3227;sao paulo;SP;;;-23.58368749624909;-46.5697617485429
98160;ivora;RS;;;-29.52147871707848;-53.57832458909973
79770;anaurilandia;MS;;;-22.186518666047206;-52.720175649737776
5723;sao paulo;SP;;;-23.64118724923539;-46.7311988716314
11665;caraguatatuba;SP;;;-23.64498629682881;-45.42645011145103
7263;guarulhos;SP;;;-23.464030452680458;-46.40153450291419
12285;cacapava;SP;;;-23.12432790309806;-45.71024262737953
64490;regeneracao;PI;;;-6.227942829611587;-42.6850333814357
54410;jaboatao dos guararapes;PE;;;-8.109694987159566;-35.02240163663283
44024;feira de santana;BA;;;-12.244947317790988;-38.98031811740434
13054;campinas;SP;;;-22.98752993345535;-47.11656504772553
16210;bilac;SP;;;-21.401868898287308;-50.468934178259445
9710;sao bernardo do campo;SP;;;-23.70899726008409;-46.54812620982171
86840;faxinal;PR;;;-23.99732810820379;-51.31358474739845
13098;campinas;SP;;;-22.820080499999992;-47.03556149999999
59196;pedro velho;RN;;;-6.4364449446840055;-35.217733313910585
4944;sao paulo;SP;;;-23.71020950597261;-46.77766430070986
28085;campos dos goytacazes;RJ;;;-21.720139625582693;-41.31045343206544
38025;uberaba;MG;;;-19.751249095475785;-47.93019340368748
28055;campos dos goytacazes;RJ;;;-21.748641111636665;-41.361873146946905
72465;brasilia;DF;;;;
34003;nova lima;MG;;;-19.987111307202653;-43.864415126814514
6132;osasco;SP;;;-23.56252661032884;-46.79832374505576
24210;niteroi;RJ;;;-22.901359568959617;-43.1241522171793
3313;sao paulo;SP;;;-23.54095417568814;-46.55943992146108
7063;guarulhos;SP;;;-23.457157219256768;-46.56012296350051
4761;sao paulo;SP;;;-23.662593167638065;-46.71798316763807
22640;rio de janeiro;RJ;;;-23.00373619547281;-43.32184116956918
21920;rio de janeiro;RJ;;;-22.79448670552253;-43.19901880099832
94410;viamao;RS;;;-30.08061351221984;-51.0272582031978
6622;jandira;SP;;;-23.551050344797275;-46.90425505423155
37545;cachoeira de minas;MG;;;-22.3542269096183;-45.77375361641286
2152;sao paulo;SP;;;-23.498158714409342;-46.573211734116185
65620;coelho neto;MA;;;-4.254789561525037;-43.02043037472462
15840;itajobi;SP;;;-21.311150026298016;-49.0511614229539
37150;carmo do rio claro;MG;;;-20.9776309991497;-46.11931317533268
5043;sao paulo;SP;;;-23.52601626721261;-46.68975372862293
24943;marica;RJ;;;-22.907234055760885;-42.93378233993956
78360;campo novo do parecis;MT;;;-13.657923924135602;-57.88838990978213
69303;boa vista;RR;;;2.803298771665072;-60.67586684273407
30140;belo horizonte;MG;;;-19.93647134886613;-43.92639691534425
45400;valenca;BA;;;-13.37094734588704;-39.07229361087708
75780;ipameri;GO;;;-17.721846775831402;-48.1599787292141
9980;diadema;SP;;;-23.69778997887861;-46.609911
17020;bauru;SP;;;-22.309153397714876;-49.06667943533956
4768;sao paulo;SP;;;-23.6721764074384;-46.71235296003805
6458;barueri;SP;;;-23.494709724651205;-46.8159959010025
95185;carlos barbosa;RS;;;-29.291861569560297;-51.51138872368569
76170;anicuns;GO;;;-16.465881142802168;-49.95539787351219
4324;sao paulo;SP;;;-23.653652752149583;-46.63635748917997
5379;sao paulo;SP;;;-23.564657650845408;-46.75373166028047
3123;sao paulo;SP;;;-23.56846632722605;-46.59821580904841
5012;sao paulo;SP;;;-23.5379062872641;-46.68116588565408
29920;rio bananal;ES;;;-19.271805837690685;-40.32772691399322
17601;tupa;SP;;;-21.930963035181065;-50.50950987814537
63300;lavras da mangabeira;CE;;;-6.755386742362436;-38.96694518611535
15140;balsamo;SP;;;-20.73610517485865;-49.580691244769085
79332;corumba;MS;;;-19.01253477537743;-57.65104755797853
20520;rio de janeiro;RJ;;;-22.92931946221692;-43.23596118471042
88301;itajai;SC;;;-26.91626999999994;-48.65245999999996
66080;belem;PA;;;-1.4219309958450534;-48.46648868235325
12213;sao jose dos campos;SP;;;-23.15014233700503;-45.91113031734969
14840;guariba;SP;;;-21.36235769739203;-48.232975701561735
95795;sao vendelino;RS;;;-29.36965041146749;-51.378081466662685
2033;sao paulo;SP;;;-23.50215379349651;-46.61688101249347
7729;caieiras;SP;;;;
44053;feira de santana;BA;;;-12.248846000198776;-38.97653313648826
8763;mogi das cruzes;SP;;;-23.58460518686723;-46.23073102478502
12926;braganca paulista;SP;;;-22.92600310699993;-46.53286499999996
49010;aracaju;SE;;;-10.910514518754546;-37.05240077699233
4543;sao paulo;SP;;;-23.59120154177962;-46.68781889731084
12230;sao jose dos campos;SP;;;-23.221431461827063;-45.888163895493165
6126;osasco;SP;;;-23.55001323680969;-46.79182616233078
12080;taubate;SP;;;-23.014906457628143;-45.55074777537135
32210;contagem;MG;;;-19.95289717247436;-44.030729447633405
9541;sao caetano do sul;SP;;;-23.62105546378897;-46.56510050291419
74645;goiania;GO;;;-16.671296999999946;-49.23724849999997
29170;serra;ES;;;-20.155123308644374;-40.27182103511451
13330;indaiatuba;SP;;;-23.089034640573622;-47.21441923786709
21320;rio de janeiro;RJ;;;-22.8858726103352;-43.34219063959268
21321;rio de janeiro;RJ;;;-22.88688293782105;-43.365750051474464
12248;sao jose dos campos;SP;;;-23.164548810433395;-45.80487447890817
26050;nova iguacu;RJ;;;-22.68788394858645;-43.474674774022965
9405;ribeirao pires;SP;;;-23.70206320161832;-46.40534820551376
2860;sao paulo;SP;;;-23.436867467943895;-46.712243713572605
44052;feira de santana;BA;;;-12.24615569663574;-38.94566629447746
24736;sao goncalo;RJ;;;-22.825408499999995;-42.96030074999999
3521;sao paulo;SP;;;-23.548877507357595;-46.51772421495759
82315;curitiba;PR;;;-25.41228842714524;-49.35922451457094
87309;campo mourao;PR;;;-24.031634774722807;-52.36000033249611
7152;guarulhos;SP;;;-23.40802531933689;-46.47133305879546
3377;sao paulo;SP;;;-23.575449467943912;-46.54265940605341
12236;sao jose dos campos;SP;;;-23.24656095920133;-45.89750073411618
62800;aracati;CE;;;-4.562180013655128;-37.76662475281954
72904;santo antonio do descoberto;GO;;;;
3371;sao paulo;SP;;;-23.571153607276788;-46.549201704137566
89251;jaragua do sul;SC;;;-26.491731442148883;-49.07562289508913
23071;rio de janeiro;RJ;;;-22.898275102977617;-43.57991583166944
74370;goiania;GO;;;-16.727890500000004;-49.34988899999999
88140;santo amaro da imperatriz;SC;;;-27.68723126004833;-48.78064877201771
20560;rio de janeiro;RJ;;;-22.918809812943557;-43.26535370468581
41741;salvador;BA;;;-12.970153992000766;-38.41364598491432
32681;betim;MG;;;-19.94839885206877;-44.11638429586245
88503;lages;SC;;;-27.83050585567545;-50.32859813849615
36570;vicosa;MG;;;-20.721937677884224;-42.86601159708953
36091;juiz de fora;MG;;;-21.70393682558144;-43.44140874935261
68633;dom eliseu;PA;;;-4.29672359708408;-47.56233693998556
64076;teresina;PI;;;-5.117030999999992;-42.76156949999999
9050;santo andre;SP;;;-23.67406207133365;-46.54253172678956
83606;campo largo;PR;;;-25.44794957803866;-49.54141858819425
9940;diadema;SP;;;-23.67034517594794;-46.60576971189919
70680;brasilia;DF;;;-15.78404999999995;-47.91689999999997
4615;sao paulo;SP;;;-23.620032660280465;-46.67092443075191
88763;santa rosa de lima;SC;;;-28.038920678369895;-49.12433449011333
36016;juiz de fora;MG;;;-21.772205528997677;-43.35345796280802
28735;quissama;RJ;;;-22.10518695179813;-41.45979324090135
16800;mirandopolis;SP;;;-21.131534491601712;-51.10568265114781
6656;itapevi;SP;;;-23.55266738040897;-46.9176766002288
85601;francisco beltrao;PR;;;-26.07915296665839;-53.06725661073275
71705;brasilia;DF;;;-15.874832134358124;-47.97308684520274
81925;curitiba;PR;;;-25.549456442408683;-49.25875779739164
13073;campinas;SP;;;-22.88093166586252;-47.068424969313
42850;dias d'avila;BA;;;-12.612785254478522;-38.30880282506203
25959;teresopolis;RJ;;;-22.45422000101887;-42.98223428751139
4321;sao paulo;SP;;;-23.64518277768481;-46.64275852192855
41770;salvador;BA;;;-12.979645413776984;-38.44513962533874
14960;novo horizonte;SP;;;-21.46284342229134;-49.21918836311204
70344;brasilia;DF;;;-15.810425241155905;-47.89530758397044
13203;jundiai;SP;;;-23.221847481562573;-46.86292270289681
91150;porto alegre;RS;;;-30.00191787642484;-51.12065583605986
8554;poa;SP;;;-23.513556753541963;-46.36541541384087
26087;nova iguacu;RJ;;;-22.71242123107117;-43.51886527337452
22441;rio de janeiro;RJ;;;-22.9835768104334;-43.22072313001338
78643;querencia;MT;;;-12.361718999999947;-52.59058549999996
6419;barueri;SP;;;-23.475866148343336;-46.88521871906254
27521;resende;RJ;;;-22.46868075491955;-44.46342640674589
22270;rio de janeiro;RJ;;;-22.95379584124873;-43.18465490536092
79052;campo grande;MS;;;-20.495221534045186;-54.58451356733091
15086;sao jose do rio preto;SP;;;-20.84877053899188;-49.38347792409516
13920;pedreira;SP;;;-22.73824150585765;-46.8958585777586
11930;pariquera-acu;SP;;;-24.72923631512427;-47.8751448746274
4675;sao paulo;SP;;;-23.66642540233641;-46.69445002223827
6437;barueri;SP;;;-23.5420009843073;-46.88815006992992
93510;novo hamburgo;RS;;;-29.684009472963563;-51.128338877236175
69098;manaus;AM;;;-3.055339005828373;-59.96164549777829
23012;rio de janeiro;RJ;;;-22.88815387097058;-43.52880192338602
49290;itabaianinha;SE;;;-11.27768921439404;-37.79492157106024
88020;florianopolis;SC;;;-27.59598577448037;-48.54618547457063
35650;pitangui;MG;;;-19.68475338758687;-44.88441675374985
89225;joinville;SC;;;-26.25351566740153;-48.80168204279203
28970;araruama;RJ;;;-22.871874606599256;-42.26921988909431
66093;belem;PA;;;-1.4381200036353377;-48.46516609521599
3461;sao paulo;SP;;;-23.569085514570943;-46.52738665237461
44790;campo formoso;BA;;;-10.506779999999935;-40.31730999999997
21830;rio de janeiro;RJ;;;-22.877869452680468;-43.48459215889548
32041;contagem;MG;;;-19.914063847840072;-44.07076715589755
4076;sao paulo;SP;;;-23.604786146546243;-46.65663831349181
21311;rio de janeiro;RJ;;;-22.895820973916518;-43.322793102285125
15706;jales;SP;;;-20.267391961658845;-50.55765486215137
46430;guanambi;BA;;;-14.224788977578138;-42.77686614606025
27522;resende;RJ;;;-22.475984416873462;-44.47082746073056
83060;sao jose dos pinhais;PR;;;-25.49540787967335;-49.155607852098925
82560;curitiba;PR;;;-25.398981180227207;-49.24692992975385
8505;ferraz de vasconcelos;SP;;;-23.551383836506066;-46.36863715408518
14900;itapolis;SP;;;-21.59119807780176;-48.81835065575072
18055;sorocaba;SP;;;-23.489741556206333;-47.509921178602326
2318;sao paulo;SP;;;-23.45490508159733;-46.59270606480468
6767;taboao da serra;SP;;;-23.61680127254892;-46.786842838738565
17280;pederneiras;SP;;;-22.3308507978399;-48.80069173298912
29112;vila velha;ES;;;-20.360474072335023;-40.351867185473125
91330;porto alegre;RS;;;-30.02870741909516;-51.16881473134623
24808;itaborai;RJ;;;-22.75434323888169;-42.85544570756432
41100;salvador;BA;;;-12.9668746207144;-38.462215490099865
1415;sao paulo;SP;;;-23.551840037191976;-46.65455309547579
11020;santos;SP;;;-23.962449666397312;-46.31498829170751
35450;itabirito;MG;;;-20.25779584611288;-43.81183983084434
69307;boa vista;RR;;;2.8599291953648303;-60.66381222549073
2420;sao paulo;SP;;;-23.476078906745908;-46.63411838565408
82720;curitiba;PR;;;-25.366615579893026;-49.22720183056799
29338;itaipava;ES;;;-20.89085590601894;-40.78359105250613
28941;sao pedro da aldeia;RJ;;;-22.837704326139622;-42.09941559909131
23017;rio de janeiro;RJ;;;-22.915539999999964;-43.54233999999997
5882;sao paulo;SP;;;-23.683086209273448;-46.78696567415893
95585;arroio do sal;RS;;;-29.48380099178912;-49.83993538512621
5314;sao paulo;SP;;;-23.534948702752576;-46.73391596448145
2636;sao paulo;SP;;;-23.45594288980902;-46.646095945322855
13202;jundiai;SP;;;-23.207180112486483;-46.87693047864591
35408;glaura;MG;;;;
38444;araguari;MG;;;-18.63020066912271;-48.178446382597535
6711;cotia;SP;;;-23.6150603215516;-46.837480828765536
95300;lagoa vermelha;RS;;;-28.21842769786725;-51.53643410117896
8584;itaquaquecetuba;SP;;;-23.424511528429004;-46.35360547403141
35290;mantena;MG;;;-18.770099240376577;-41.003344327705264
11629;sao sebastiao;SP;;;-23.762636109354258;-45.41314194601535
7023;guarulhos;SP;;;-23.478156;-46.5416505
11750;peruibe;SP;;;-24.30942886354128;-46.991091315656
1452;sao paulo;SP;;;-23.56883153079836;-46.69199439364803
13083;campinas;SP;;;-22.805125239800333;-47.07162026686478
8371;sao paulo;SP;;;-23.59585455193871;-46.42393709638021
88703;tubarao;SC;;;-28.544618175464237;-49.06151957617777
51020;recife;PE;;;-8.109659996393315;-34.89334721273588
35480;bonfim;MG;;;-20.32778901692791;-44.23990763510544
80540;curitiba;PR;;;-25.39986976934627;-49.25998715153791
94836;alvorada;RS;;;-30.000191890403272;-51.029234623602704
38740;patrocinio;MG;;;-18.96081539046384;-47.00148282201047
85010;guarapuava;PR;;;-25.38999640215828;-51.47482035400201
90430;porto alegre;RS;;;-30.03327;-51.20423325688145
75830;mineiros;GO;;;-17.545195576304636;-52.53858860410263
22221;rio de janeiro;RJ;;;-22.931508341392973;-43.18179399042069
91450;porto alegre;RS;;;-30.047581192965318;-51.13461203217546
70760;brasilia;DF;;;-15.746845499999996;-47.89820699999999
13082;campinas;SP;;;-22.829166690333924;-47.09886947241718
5267;sao paulo;SP;;;-23.44010656702638;-46.78960911740432
13273;valinhos;SP;;;-22.946686728177077;-46.9746763873937
4086;sao paulo;SP;;;-23.61573639078998;-46.6637504454671
13417;piracicaba;SP;;;-22.746032877835145;-47.63636231303046
25065;duque de caxias;RJ;;;-22.77760106919542;-43.29066335228759
13206;jundiai;SP;;;-23.211714582578274;-46.8753760355472
4434;sao paulo;SP;;;-23.684751650008693;-46.66874074701369
45607;itabuna;BA;;;-14.8127254052167;-39.27498269663575
1123;sao paulo;SP;;;-23.529307180131543;-46.63490526351788
20260;rio de janeiro;RJ;;;-22.913297402446734;-43.20920670635925
87302;campo mourao;PR;;;-24.037123500000003;-52.39895399999999
21511;rio de janeiro;RJ;;;-22.835470582901703;-43.35969242165472
25250;duque de caxias;RJ;;;-22.577232122164883;-43.305237856841536
88200;tijucas;SC;;;-27.24191068154528;-48.61743425899997
44574;santo antonio de jesus;BA;;;-12.976895206207752;-39.25308429656357
78640;canarana;MT;;;-13.55856770863092;-52.26752495815682
6850;itapecerica da serra;SP;;;-23.70404669608747;-46.851423799613336
6395;carapicuiba;SP;;;-23.53001209630836;-46.84894223601885
85685;nova prata do iguacu;PR;;;-25.64044366516244;-53.34450735383426
89650;treze tilias;SC;;;-26.99928007635342;-51.41862192626861
29230;anchieta;ES;;;-20.804829673444225;-40.649292
8473;sao paulo;SP;;;-23.52946681265509;-46.63502230919265
2563;sao paulo;SP;;;-23.4921242514571;-46.67252903941368
89203;joinville;SC;;;-26.302574503750908;-48.85193236372555
41745;salvador;BA;;;-12.93145544768877;-38.40926859627693
13466;americana;SP;;;-22.752315072998982;-47.32371492368279
3984;sao paulo;SP;;;-23.607115208436724;-46.51384694379366
27331;barra mansa;RJ;;;-22.55485206578562;-44.14880077684809
70743;brasilia;DF;;;-15.766987500000004;-47.88392399999999
30516;belo horizonte;MG;;;-19.954340570633057;-43.98677951762936
13238;campo limpo paulista;SP;;;-23.237674244304586;-46.76839048567362
86450;quatigua;PR;;;-23.57524580904836;-49.91439940452419
9991;diadema;SP;;;-23.695052270875475;-46.61040065612552
80740;curitiba;PR;;;-25.44145496502972;-49.31273063488947
56326;petrolina;PE;;;-9.356843074932229;-40.48439605274388
26165;belford roxo;RJ;;;-22.735079682038137;-43.38748613936333
38280;iturama;MG;;;-19.72379754927861;-50.18472635169813
20730;rio de janeiro;RJ;;;-22.89702020676329;-43.30023388550985
48900;juazeiro;BA;;;-9.43077319936269;-40.50362722887868
44085;feira de santana;BA;;;-12.25560541271852;-38.92030328864908
12308;jacarei;SP;;;-23.30139631473257;-45.96172658840667
2878;sao paulo;SP;;;-23.450662163194657;-46.68685226741304
11673;caraguatatuba;SP;;;-23.6376693781232;-45.440386507791175
85555;palmas;PR;;;-26.48257236390896;-51.9929615275
27353;barra mansa;RJ;;;-22.56314478067754;-44.25649843818681
1229;sao paulo;SP;;;-23.54108734139297;-46.65733920275257
98910;tres de maio;RS;;;-27.713180999999945;-54.26528299999997
13670;santa rita do passa quatro;SP;;;-21.69177606516385;-47.47882812541438
4039;sao paulo;SP;;;-23.59781341993187;-46.65027211809684
22051;rio de janeiro;RJ;;;-22.972496751601327;-43.18950774937962
13476;americana;SP;;;-22.744040339102405;-47.24289505970237
21931;rio de janeiro;RJ;;;-22.805776179896323;-43.20393517954484
78240;porto esperidiao;MT;;;-15.47335328021274;-59.08996994865012
14110;bonfim paulista;SP;;;-21.185944576067463;-47.81498292186677
14240;cajuru;SP;;;-21.272672631957786;-47.30592892225557
89500;cacador;SC;;;-26.77759782919396;-51.0266006692904
36888;muriae;MG;;;-21.118499256448757;-42.38232130252754
68628;paragominas;PA;;;-2.9871835529890944;-47.35353570314082
14930;boa esperanca do sul;SP;;;-21.998055203292065;-48.38377561011862
22795;rio de janeiro;RJ;;;-23.026044731317555;-43.46104142146108
18610;botucatu;SP;;;-22.85427884984708;-48.44620612975359
90540;porto alegre;RS;;;-30.0207634565756;-51.18892235636796
4621;sao paulo;SP;;;-23.623332097697496;-46.68454356272721
37190;tres pontas;MG;;;-21.37265818200068;-45.51500579722833
63010;juazeiro do norte;CE;;;-7.201908;-39.320293500000005
51335;recife;PE;;;-8.115893239194207;-34.962278031272874
13013;campinas;SP;;;-22.91123520843672;-47.05819755314793
5778;sao paulo;SP;;;-23.64054058006812;-46.75217512101102
1407;sao paulo;SP;;;-23.5784800999192;-46.67516750652087
94085;gravatai;RS;;;-29.92480530030584;-51.05765008465576
6172;osasco;SP;;;-23.54204599711017;-46.81338237476369
13210;jundiai;SP;;;-23.21955226311385;-46.88331318927813
38900;bambui;MG;;;-20.0077335;-45.9787545
94420;viamao;RS;;;-30.019941040799285;-51.024457024074096
13207;jundiai;SP;;;-23.1954527149576;-46.885125855675454
25870;comendador levy gasparian;RJ;;;-22.0296234152697;-43.20507649341323
49535;sao miguel do aleixo;SE;;;-10.386074758058108;-37.37878589064772
79002;campo grande;MS;;;-20.45701824063706;-54.60285131989711
4363;sao paulo;SP;;;-23.64684593421437;-46.6660547231519
57601;palmeira dos indios;AL;;;-9.41159178735396;-36.637984817969446
18520;cerquilho;SP;;;-23.17098515567461;-47.73847012348546
83602;campo largo;PR;;;-25.464021140347796;-49.550451239912576
3431;sao paulo;SP;;;-23.554133203993324;-46.53048959908248
13480;limeira;SP;;;-22.564590914795996;-47.40315315223038
5625;sao paulo;SP;;;-23.591119945322877;-46.72995539425242
85568;saudade do iguacu;PR;;;-25.69578996866945;-52.61843628299726
18950;ipaussu;SP;;;-23.05035208242116;-49.62755542394423
73770;alto paraiso de goias;GO;;;-14.134031989630474;-47.51351624236543
21060;rio de janeiro;RJ;;;-22.86491138051819;-43.256420108805976
4084;sao paulo;SP;;;-23.61744914654625;-46.65815128795659
3660;sao paulo;SP;;;-23.523945619221767;-46.50583600788512
6787;taboao da serra;SP;;;-23.62704363918865;-46.79980025520799
5409;sao paulo;SP;;;-23.555476749379626;-46.67548530850014
87015;maringa;PR;;;-23.42880633856904;-51.97183135000928
51340;recife;PE;;;-8.122360279603889;-34.95497258201993
20541;rio de janeiro;RJ;;;-22.92531913366395;-43.25369631041029
7500;santa isabel;SP;;;-23.313367272379296;-46.23184349266853
13084;campinas;SP;;;-22.81905949374732;-47.09337872045235
5026;sao paulo;SP;;;-23.5338118842691;-46.69166880806747
91430;porto alegre;RS;;;-30.052386519109746;-51.14631362022254
75860;quirinopolis;GO;;;-18.456132837578057;-50.45264691362931
55022;caruaru;PE;;;-8.277214568411361;-35.931514851780314
95047;caxias do sul;RS;;;-29.123703751343527;-51.18499659404691
28860;casimiro de abreu;RJ;;;-22.49029494139157;-42.20048481554468
40230;salvador;BA;;;-12.989747825656687;-38.50687444617604
66045;belem;PA;;;-1.4610480874257128;-48.47781296251955
18970;chavantes;SP;;;-23.03691085933989;-49.704819968679786
29850;ecoporanga;ES;;;-18.37041924238617;-40.83332720083949
12630;cachoeira paulista;SP;;;-22.66402169969416;-45.00665755897629
37552;pouso alegre;MG;;;-22.22039807649275;-45.939891873985935
40060;salvador;BA;;;-12.98237900541323;-38.51570591058
75908;rio verde;GO;;;-17.79840647337413;-50.9384830243572
22470;rio de janeiro;RJ;;;-22.96555273382772;-43.2162783326504
61939;maracanau;CE;;;-3.876104415952889;-38.59578398284905
5366;sao paulo;SP;;;-23.57291262031853;-46.75972403580701
22071;rio de janeiro;RJ;;;-22.97891413015762;-43.19043519525077
17012;bauru;SP;;;-22.332425763517893;-49.060789754631074
4430;sao paulo;SP;;;-23.690164844050702;-46.64635447931283
15085;sao jose do rio preto;SP;;;-20.83841198142741;-49.38082796951136
14810;araraquara;SP;;;-21.778926590339896;-48.15890478322473
72015;brasilia;DF;;;-15.840667480274698;-48.051942900348365
81070;curitiba;PR;;;-25.48015350874257;-49.29687243020366
89460;canoinhas;SC;;;-26.16862248406491;-50.392861528512256
31710;belo horizonte;MG;;;-19.843708202868147;-43.95899630890419
14500;ituverava;SP;;;-20.317321012349943;-47.78078066138952
80020;curitiba;PR;;;-25.425497629753597;-49.26880418595993
8663;suzano;SP;;;-23.569201792697744;-46.33696493780933
64230;buriti dos lopes;PI;;;-3.181981359322651;-41.87213884455693
96200;rio grande;RS;;;-32.032076778660375;-52.103793550113096
46220;rio do antonio;BA;;;-14.406974523732506;-42.07954972491689
5145;sao paulo;SP;;;-23.506049208479613;-46.71737739541604
4015;sao paulo;SP;;;-23.58705433389114;-46.64555835443469
16570;guaranta;SP;;;-21.892917503348645;-49.5881974694828
54280;jaboatao dos guararapes;PE;;;-8.113140872999963;-34.97289999999998
25036;duque de caxias;RJ;;;-22.663189612142688;-43.3037112690833
70650;brasilia;DF;;;-15.799526999999998;-47.94364800000001
33035;santa luzia;MG;;;-19.765223296887573;-43.8662920462471
68455;tucurui;PA;;;-3.828931944027961;-49.67879798413284
29103;vila velha;ES;;;-20.38395963794757;-40.31493801624039
87703;paranavai;PR;;;-23.0695428504722;-52.46855076635804
13563;sao carlos;SP;;;-22.001643392946637;-47.924424205357845
83331;pinhais;PR;;;-25.44690031975288;-49.16096874271452
24435;sao goncalo;RJ;;;-22.82408398146363;-43.06864776948586
13560;sao carlos;SP;;;-22.01139055955482;-47.886487092764376
17014;bauru;SP;;;-22.3312275;-49.07597849999999
32623;betim;MG;;;-19.919812054677124;-44.27652976103638
3573;sao paulo;SP;;;-23.56168119891244;-46.50627110555333
38070;uberaba;MG;;;-19.731044422960803;-47.9220591241417
2975;sao paulo;SP;;;-23.47842966694557;-46.7118093039125
4559;sao paulo;SP;;;-23.614087956142907;-46.68093259784173
3896;sao paulo;SP;;;-23.514262805989983;-46.4776359096601
35010;governador valadares;MG;;;-18.85822999288047;-41.95041011170687
38051;uberaba;MG;;;-19.76568365621507;-47.88917987807443
85501;pato branco;PR;;;-26.23309163375265;-52.67355012674504
13059;campinas;SP;;;-22.946206445520712;-47.13505192996653
28750;trajano de moraes;RJ;;;-22.064740498115576;-42.0658327038318
14020;ribeirao preto;SP;;;-21.210104711049134;-47.80139005429387
29052;vitoria;ES;;;-20.31066918610968;-40.29776322336832
34800;caete;MG;;;-19.883520408537528;-43.66933297389486
36060;juiz de fora;MG;;;-21.750376326884545;-43.34244904057714
80420;curitiba;PR;;;-25.434899979456432;-49.28320625116862
29303;cachoeiro de itapemirim;ES;;;-20.855567929891905;-41.11471169782581
2210;sao paulo;SP;;;-23.48653952622772;-46.57926775506377
13170;sumare;SP;;;-22.828654864562257;-47.267296160568925
23085;rio de janeiro;RJ;;;-22.888546173778685;-43.53316741287888
22031;rio de janeiro;RJ;;;-22.96616144434192;-43.18753952677599
51230;recife;PE;;;-8.11796411422037;-34.942421754574
59030;natal;RN;;;-5.800559887875781;-35.211296723844406
72509;brasilia;DF;;;-16.022942572375488;-48.02046252807729
15053;sao jose do rio preto;SP;;;-20.776666890782614;-49.36287357278835
3877;sao paulo;SP;;;-23.51199192423105;-46.49208446197129
68440;abaetetuba;PA;;;-1.72443104027005;-48.886307075047846
37200;lavras;MG;;;-21.24898018734491;-44.99817928074323
13189;hortolandia;SP;;;-22.867252818816223;-47.23172936395768
48590;coronel joao sa;BA;;;-10.28225850245192;-37.925936580323885
6045;osasco;SP;;;-23.569732058283808;-46.794309966703146
51011;recife;PE;;;-8.097784915917195;-34.887951951485775
36820;divino;MG;;;-20.60816754571612;-42.14487245428386
70773;brasilia;DF;;;-15.737759999999998;-47.89320525
31030;belo horizonte;MG;;;-19.907108245080448;-43.91966546502971
3566;sao paulo;SP;;;-23.537055939494493;-46.49216423604941
69911;rio branco;AC;;;-10.008036000000004;-67.7778255
17521;marilia;SP;;;-22.243526591724883;-49.91885152400602
8557;poa;SP;;;-23.508750444583395;-46.34023597223055
46500;macaubas;BA;;;-13.020057805547284;-42.693508653720095
17780;lucelia;SP;;;-21.72156946959475;-51.02246171980429
5027;sao paulo;SP;;;-23.538068769086465;-46.69659705565807
88032;florianopolis;SC;;;-27.536913214854422;-48.50901793197551
13500;rio claro;SP;;;-22.402133192076768;-47.56233402025511
81210;curitiba;PR;;;-25.4439745033258;-49.32947681717858
55170;brejo da madre de deus;PE;;;-8.151652952943909;-36.36954681604157
39810;carai;MG;;;-17.185850793204;-41.69796465537738
3648;sao paulo;SP;;;-23.52667505245542;-46.52515952928614
41190;salvador;BA;;;-12.947793595448337;-38.467939412902346
13607;araras;SP;;;-22.3724074299152;-47.34738062891686
85420;corbelia;PR;;;-24.78917348429311;-53.2958634842931
85864;foz do iguacu;PR;;;-25.5199962069248;-54.589633436421295
6310;carapicuiba;SP;;;-23.515829118145916;-46.83639885986718
9060;santo andre;SP;;;-23.656293518994904;-46.55412213733605
37031;varginha;MG;;;-21.557266810298533;-45.460675602985326
35400;ouro preto;MG;;;-20.38523748903572;-43.50551302553521
45980;prado;BA;;;-17.338279504195743;-39.22802565319706
20090;rio de janeiro;RJ;;;-22.897963477927224;-43.178970829447735
18046;sorocaba;SP;;;-23.519223858733884;-47.474937078683126
20950;rio de janeiro;RJ;;;-22.903440789341573;-43.25796388245143
25955;teresopolis;RJ;;;-22.41615207847892;-42.96901641569299
14025;ribeirao preto;SP;;;-21.18665775437128;-47.80976500582838
13613;leme;SP;;;-22.182877947739502;-47.40087091500408
13343;indaiatuba;SP;;;-23.102451439638717;-47.20594429294824
44001;feira de santana;BA;;;-12.255025442574611;-38.96569201176267
78335;colniza;MT;;;-9.45518257672924;-59.21982588376638
29285;piuma;ES;;;-20.83934745045876;-40.72739984055626
53020;olinda;PE;;;-8.012571212880127;-34.85623862989782
19600;rancharia;SP;;;-22.228424054343822;-50.90428896994729
14784;barretos;SP;;;-20.58223091395927;-48.557197702608335
45820;eunapolis;BA;;;-16.37787453533949;-39.58753930062822
56400;floresta;PE;;;-8.601279061473267;-38.56880103092132
96225;sao jose do norte;RS;;;-31.756998494341783;-51.60156420031753
28800;rio bonito;RJ;;;-22.7072351350913;-42.62882877464098
76873;ariquemes;RO;;;-9.894276;-63.032818500000005
22011;rio de janeiro;RJ;;;-22.962511351924544;-43.17640771510184
12509;guaratingueta;SP;;;-22.794715339526643;-45.21987050429393
89675;vargem bonita;SC;;;-26.999694;-51.74448229787319
2231;sao paulo;SP;;;-23.47785620260835;-46.56407653052688
13190;monte mor;SP;;;-22.95001023221123;-47.30583884974829
78554;sinop;MT;;;;
7858;franco da rocha;SP;;;-23.326937394388622;-46.71473765290403
91030;porto alegre;RS;;;-30.008157352685952;-51.17525078926519
48890;valente;BA;;;-11.411647268399973;-39.46362281922109
9371;maua;SP;;;-23.66930462115525;-46.48159847045406
11500;cubatao;SP;;;-23.88073319655594;-46.41774121252613
8452;sao paulo;SP;;;-23.53930161993744;-46.39311345476973
8141;sao paulo;SP;;;-23.52103885206878;-46.396061811270094
65800;balsas;MA;;;-7.511492507642972;-46.04703653821487
22723;rio de janeiro;RJ;;;-22.915126647964037;-43.40987975082128
15190;nhandeara;SP;;;-20.691381198603764;-50.04237071280033
5434;sao paulo;SP;;;-23.559158524842736;-46.692485203993336
42702;lauro de freitas;BA;;;-12.893506795316291;-38.319974467390125
95520;osorio;RS;;;-29.887280851051504;-50.26939661479174
37750;machado;MG;;;-21.680839261430663;-45.923257870066
22743;rio de janeiro;RJ;;;-22.933479697760923;-43.350149913122536
93037;sao leopoldo;RS;;;-29.790041557369143;-51.13274825026866
58155;soledade;PB;;;-7.057965665738178;-36.36214886437195
9370;maua;SP;;;-23.67156097030984;-46.46933216922553
19804;assis;SP;;;-22.66272240238052;-50.43776522959186
22230;rio de janeiro;RJ;;;-22.93781597002137;-43.17619884430715
41701;salvador;BA;;;-12.94150972522938;-38.40461312683939
29216;guarapari;ES;;;-20.657012779234822;-40.494091387672256
26041;nova iguacu;RJ;;;-22.709328438971543;-43.461048749309306
87730;santo antonio do caiua;PR;;;-22.73891049285855;-52.34634377408081
93260;esteio;RS;;;-29.84902518598416;-51.17602955525653
88047;florianopolis;SC;;;-27.649291379133214;-48.52180222785512
6642;jandira;SP;;;-23.55715469123798;-46.87292061373248
28430;cambuci;RJ;;;-21.57305213452761;-41.91981861833243
2849;sao paulo;SP;;;-23.463526662502165;-46.68600587454558
83430;campina grande do sul;PR;;;-25.365855480212275;-49.10538897664281
20220;rio de janeiro;RJ;;;-22.90545140437997;-43.20561545490215
23525;rio de janeiro;RJ;;;-22.94343646543375;-43.683087610999046
4037;sao paulo;SP;;;-23.595390167638055;-46.63789148167815
13219;jundiai;SP;;;-23.187084388467;-46.8516474016882
29730;baixo guandu;ES;;;-19.516289537951437;-41.00621706648061
17455;fernao;SP;;;-22.36068179764996;-49.518572838059285
90560;porto alegre;RS;;;-30.01769047489746;-51.19121208090485
71015;brasilia;DF;;;-15.825499262113878;-47.98823901541496
28920;cabo frio;RJ;;;-22.843630786080958;-42.02756173851427
14940;ibitinga;SP;;;-21.7664768468313;-48.83154737836604
31985;belo horizonte;MG;;;-19.854629140717854;-43.910470749379634
2321;sao paulo;SP;;;-23.44749411991629;-46.58851618260319
29065;vitoria;ES;;;-20.27507398535653;-40.2918413543484
79092;campo grande;MS;;;-20.496537;-54.663462
14021;ribeirao preto;SP;;;-21.21227916180968;-47.78815176242136
13650;santa cruz das palmeiras;SP;;;-21.81702801458608;-47.24266525128645
2118;sao paulo;SP;;;-23.51661167998731;-46.59476458159733
3980;sao paulo;SP;;;-23.61662227782904;-46.515106571469765
23870;vila muriqui;RJ;;;-22.92219383988727;-43.94349730364039
6663;itapevi;SP;;;-23.56337220714669;-46.93710104735605
14022;ribeirao preto;SP;;;-21.226395814200256;-47.78501779742152
8420;sao paulo;SP;;;-23.552100149323145;-46.4452853997018
35180;timoteo;MG;;;-19.54373077737746;-42.651621091858686
72900;santo antonio do descoberto;GO;;;-15.942803976898665;-48.25304942148582
29946;sao mateus;ES;;;-18.736320161321608;-39.74979977535807
1543;sao paulo;SP;;;-23.575755845951942;-46.62009625506377
1156;sao paulo;SP;;;-23.5298272739339;-46.66466605744709
13033;campinas;SP;;;-22.908292093622787;-47.09417761615002
64240;piracuruca;PI;;;-3.929133069780427;-41.700814673613735
3813;sao paulo;SP;;;-23.48668357540144;-46.46746268716547
5363;sao paulo;SP;;;-23.57642039119108;-46.7446113017497
28540;cordeiro;RJ;;;-22.02458009174551;-42.36284244106788
96508;cachoeira do sul;RS;;;-30.04253649475705;-52.89548555163659
27110;barra do pirai;RJ;;;-22.475705751194017;-43.8357998606426
1539;sao paulo;SP;;;-23.573782561198005;-46.62058066708981
2463;sao paulo;SP;;;-23.490045250612457;-46.64419142885248
4459;sao paulo;SP;;;-23.6924084701656;-46.671153076605655
87075;maringa;PR;;;-23.39834981381488;-51.98161405716274
84172;castro;PR;;;-24.794234999999997;-49.99697099999999
83321;pinhais;PR;;;-25.44450819623171;-49.17725474672523
63430;ico;CE;;;-6.398906499205076;-38.860041368109655
13141;paulinia;SP;;;-22.80512828442024;-47.143218525002766
3192;sao paulo;SP;;;-23.570708521784304;-46.57894228282069
25901;mage;RJ;;;-22.6719052822929;-43.16990957323648
6186;osasco;SP;;;-23.53386853621104;-46.81391517346643
6385;carapicuiba;SP;;;-23.549127420811832;-46.84347909144322
35701;sete lagoas;MG;;;-19.447338587123927;-44.21712257170282
8382;sao paulo;SP;;;-23.61288548213976;-46.41581371071615
75523;itumbiara;GO;;;-18.40873815540604;-49.21153887532976
13064;campinas;SP;;;-22.89149811512646;-47.14575284988991
4747;sao paulo;SP;;;-23.657594422076475;-46.6989063034577
41830;salvador;BA;;;-13.00486273633788;-38.46539390896759
4857;sao paulo;SP;;;-23.7836170269202;-46.68314048987244
8290;sao paulo;SP;;;-23.551013388568272;-46.44848890729416
18047;sorocaba;SP;;;-23.529407521784314;-47.4673714103526
3738;sao paulo;SP;;;-23.507094185123208;-46.50903325867046
82920;curitiba;PR;;;-25.44954288613569;-49.21144025667293
20080;rio de janeiro;RJ;;;-22.90109527728077;-43.18255872869183
18125;aluminio;SP;;;-23.51736771076844;-47.26079094034855
5029;sao paulo;SP;;;-23.541666538981;-46.69424821816023
3801;sao paulo;SP;;;-23.497787168474776;-46.49019646794392
75801;jatai;GO;;;-17.85733096954763;-51.72973185877476
98400;frederico westphalen;RS;;;-27.35547089700958;-53.40427015016742
36201;barbacena;MG;;;-21.230927487768454;-43.79341425698508
94451;viamao;RS;;;-30.15946930410813;-50.832839089335735
70234;brasilia;DF;;;-15.8114925;-47.891466
87360;goioere;PR;;;-24.18847968847047;-53.016364393737085
57445;sao jose da tapera;AL;;;-9.560354288001047;-37.37983664590461
6693;itapevi;SP;;;-23.541701708637145;-46.93834484362289
31060;belo horizonte;MG;;;-19.89411305190717;-43.909105945322864
89400;porto uniao;SC;;;-26.23222339009829;-51.08336577971018
86040;londrina;PR;;;-23.33472238190318;-51.14522312378098
4565;sao paulo;SP;;;-23.616873842549825;-46.6817889093505
29129;vila velha;ES;;;-20.52499036578865;-40.37327331983742
78680;cocalinho;MT;;;-14.393058069400425;-51.00008027836111
8500;ferraz de vasconcelos;SP;;;-23.54278837385309;-46.36699847002138
17013;bauru;SP;;;-22.32408404244344;-49.05959852054356
12234;sao jose dos campos;SP;;;-23.28969934194122;-45.88788224868712
89520;curitibanos;SC;;;-27.288614821408185;-50.57696646191445
18048;sorocaba;SP;;;-23.53401196947312;-47.46735238343239
2940;sao paulo;SP;;;-23.47988811740434;-46.72377830322003
13562;sao carlos;SP;;;-22.004791731894475;-47.92391903635525
9811;sao bernardo do campo;SP;;;-23.72527983484343;-46.55702673772287
1210;sao paulo;SP;;;-23.540860990564934;-46.64385528059898
9181;santo andre;SP;;;-23.687604648912163;-46.526392163742905
1307;sao paulo;SP;;;-23.549360699694148;-46.65412441687346
1401;sao paulo;SP;;;-23.569747571977175;-46.65100357197719
14708;bebedouro;SP;;;-20.92906365156043;-48.49522308128064
14406;franca;SP;;;-20.531151999894856;-47.43366787318517
29316;cachoeiro de itapemirim;ES;;;-20.858488289900567;-41.0984056958219
89620;campos novos;SC;;;-27.403062004188214;-51.22967409631809
23060;rio de janeiro;RJ;;;-22.89838745195309;-43.61308366857508
4323;sao paulo;SP;;;-23.652963911189307;-46.6406214672514
11680;ubatuba;SP;;;-23.43162669109582;-45.07722870122336
70355;brasilia;DF;;;-15.814984500000005;-47.90584125
22060;rio de janeiro;RJ;;;-22.973939675543917;-43.190175781579946
1403;sao paulo;SP;;;-23.57034735804139;-46.65315099653755
8275;sao paulo;SP;;;-23.57714001165677;-46.48276229003407
64002;teresina;PI;;;-5.077309047100612;-42.811760520500144
22713;rio de janeiro;RJ;;;-22.930927083992938;-43.3849856514328
7210;guarulhos;SP;;;-23.46085206994057;-46.44126771135092
29165;serra;ES;;;-20.19363644957563;-40.27380330496123
85862;foz do iguacu;PR;;;-25.484806613139725;-54.50792805280905
83601;campo largo;PR;;;-25.466635468752123;-49.53576575000499
